{"layers":[{"layerDefinition":{"geometryType":"esriGeometryPoint","objectIdField":"__OBJECTID","type":"Feature Layer","drawingInfo":{"renderer":{"type":"simple","symbol":{"color":null,"size":7.5,"angle":0,"xoffset":0,"yoffset":0,"type":"esriSMS","style":"esriSMSCircle","outline":{"color":[115,38,0,255],"width":1.5,"type":"esriSLS","style":"esriSLSSolid"}}},"fixedSymbols":true},"fields":[{"name":"__OBJECTID","alias":"__OBJECTID","type":"esriFieldTypeOID","editable":false,"nullable":false,"domain":null},{"name":"Water_works","alias":"Water works","type":"esriFieldTypeString","length":255,"editable":true,"nullable":true,"domain":null},{"name":"Source","alias":"Source","type":"esriFieldTypeString","length":255,"editable":true,"nullable":true,"domain":null},{"name":"PFBS","alias":"PFBS","type":"esriFieldTypeInteger","editable":true,"nullable":true,"domain":null},{"name":"HFPO_DA","alias":"HFPO- DA","type":"esriFieldTypeInteger","editable":true,"nullable":true,"domain":null},{"name":"PFHpA","alias":"PFHpA","type":"esriFieldTypeInteger","editable":true,"nullable":true,"domain":null},{"name":"PFHxS","alias":"PFHxS","type":"esriFieldTypeInteger","editable":true,"nullable":true,"domain":null},{"name":"ADONA","alias":"ADONA","type":"esriFieldTypeInteger","editable":true,"nullable":true,"domain":null},{"name":"PFOA","alias":"PFOA","type":"esriFieldTypeInteger","editable":true,"nullable":true,"domain":null},{"name":"PFOS","alias":"PFOS","type":"esriFieldTypeInteger","editable":true,"nullable":true,"domain":null},{"name":"PFNA","alias":"PFNA","type":"esriFieldTypeInteger","editable":true,"nullable":true,"domain":null},{"name":"Total_PFAS","alias":"Total PFAS","type":"esriFieldTypeInteger","editable":true,"nullable":true,"domain":null},{"name":"Unit","alias":"Unit","type":"esriFieldTypeString","length":255,"editable":true,"nullable":true,"domain":null},{"name":"Latitude","alias":"Latitude","type":"esriFieldTypeDouble","editable":true,"nullable":true,"domain":null},{"name":"Longitude","alias":"Longitude","type":"esriFieldTypeDouble","editable":true,"nullable":true,"domain":null}],"capabilities":"Query,Editing,Extract","name":"groundwater not detected","extent":{"xmin":-9918906.8201,"ymin":4384306.479900001,"xmax":-9202102.0299,"ymax":4731822.8801,"spatialReference":{"wkid":102100}},"typeIdField":"","templates":[],"types":[],"minScale":36978596,"maxScale":0,"spatialReference":{"wkid":102100}},"featureSet":{"features":[{"geometry":{"x":-9671159.06,"y":4495359.58,"spatialReference":{"wkid":102100}},"attributes":{"Water_works":"Beaver Dam Municipal Water","Source":"GW","PFBS":0,"HFPO_DA":0,"PFHpA":0,"PFHxS":0,"ADONA":0,"PFOA":0,"PFOS":0,"PFNA":0,"Total_PFAS":0,"Unit":"ng/L","Latitude":37.4025,"Longitude":-86.8775,"__OBJECTID":0}},{"geometry":{"x":-9834984.28,"y":4420035.71,"spatialReference":{"wkid":102100}},"attributes":{"Water_works":"Benton Water & Sewer","Source":"GW","PFBS":0,"HFPO_DA":0,"PFHpA":0,"PFHxS":0,"ADONA":0,"PFOA":0,"PFOS":0,"PFNA":0,"Total_PFAS":0,"Unit":"ng/L","Latitude":36.863056,"Longitude":-88.349167,"__OBJECTID":1}},{"geometry":{"x":-9834984.28,"y":4444644.97,"spatialReference":{"wkid":102100}},"attributes":{"Water_works":"Calvert City Municipal Water Dept","Source":"GW","PFBS":0,"HFPO_DA":0,"PFHpA":0,"PFHxS":0,"ADONA":0,"PFOA":0,"PFOS":0,"PFNA":0,"Total_PFAS":0,"Unit":"ng/L","Latitude":37.039722,"Longitude":-88.349167,"__OBJECTID":2}},{"geometry":{"x":-9440928.65,"y":4695365.18,"spatialReference":{"wkid":102100}},"attributes":{"Water_works":"Carroll Co WD - Gallatin Plant","Source":"GW","PFBS":0,"HFPO_DA":0,"PFHpA":0,"PFHxS":0,"ADONA":0,"PFOA":0,"PFOS":0,"PFNA":0,"Total_PFAS":0,"Unit":"ng/L","Latitude":38.816111,"Longitude":-84.809305,"__OBJECTID":3}},{"geometry":{"x":-9482163.28,"y":4675818.64,"spatialReference":{"wkid":102100}},"attributes":{"Water_works":"Carrollton Utilities","Source":"GW","PFBS":0,"HFPO_DA":0,"PFHpA":0,"PFHxS":0,"ADONA":0,"PFOA":0,"PFOS":0,"PFNA":0,"Total_PFAS":0,"Unit":"ng/L","Latitude":38.679167,"Longitude":-85.179722,"__OBJECTID":4}},{"geometry":{"x":-9868380.13,"y":4413081.14,"spatialReference":{"wkid":102100}},"attributes":{"Water_works":"Graves Co WD - Hickory","Source":"GW","PFBS":0,"HFPO_DA":0,"PFHpA":0,"PFHxS":0,"ADONA":0,"PFOA":0,"PFOS":0,"PFNA":0,"Total_PFAS":0,"Unit":"ng/L","Latitude":36.813056,"Longitude":-88.649167,"__OBJECTID":5}},{"geometry":{"x":-9656594.8,"y":4565543.96,"spatialReference":{"wkid":102100}},"attributes":{"Water_works":"Hawesville Water Works","Source":"GW","PFBS":0,"HFPO_DA":0,"PFHpA":0,"PFHxS":0,"ADONA":0,"PFOA":0,"PFOS":0,"PFNA":0,"Total_PFAS":0,"Unit":"ng/L","Latitude":37.901667,"Longitude":-86.746667,"__OBJECTID":6}},{"geometry":{"x":-9849270.25,"y":4445768.52,"spatialReference":{"wkid":102100}},"attributes":{"Water_works":"Ledbetter WD","Source":"GW","PFBS":0,"HFPO_DA":0,"PFHpA":0,"PFHxS":0,"ADONA":0,"PFOA":0,"PFOS":0,"PFNA":0,"Total_PFAS":0,"Unit":"ng/L","Latitude":37.047778,"Longitude":-88.4775,"__OBJECTID":7}},{"geometry":{"x":-9866524.77,"y":4402349,"spatialReference":{"wkid":102100}},"attributes":{"Water_works":"Mayfield Water & Sewer","Source":"GW","PFBS":0,"HFPO_DA":0,"PFHpA":0,"PFHxS":0,"ADONA":0,"PFOA":0,"PFOS":0,"PFNA":0,"Total_PFAS":0,"Unit":"ng/L","Latitude":36.735833,"Longitude":-88.6325,"__OBJECTID":8}},{"geometry":{"x":-9829820.28,"y":4384306.48,"spatialReference":{"wkid":102100}},"attributes":{"Water_works":"Murray Water System","Source":"GW","PFBS":0,"HFPO_DA":0,"PFHpA":0,"PFHxS":0,"ADONA":0,"PFOA":0,"PFOS":0,"PFNA":0,"Total_PFAS":0,"Unit":"ng/L","Latitude":36.605833,"Longitude":-88.302778,"__OBJECTID":9}},{"geometry":{"x":-9317936.08,"y":4669562.11,"spatialReference":{"wkid":102100}},"attributes":{"Water_works":"W Lewis Rectorville","Source":"GW","PFBS":0,"HFPO_DA":0,"PFHpA":0,"PFHxS":0,"ADONA":0,"PFOA":0,"PFOS":0,"PFNA":0,"Total_PFAS":0,"Unit":"ng/L","Latitude":38.635278,"Longitude":-83.704444,"__OBJECTID":10}},{"geometry":{"x":-9452947.53,"y":4689336.07,"spatialReference":{"wkid":102100}},"attributes":{"Water_works":"Warsaw Water Works","Source":"GW","PFBS":0,"HFPO_DA":0,"PFHpA":0,"PFHxS":0,"ADONA":0,"PFOA":0,"PFOS":0,"PFNA":0,"Total_PFAS":0,"Unit":"ng/L","Latitude":38.77389881,"Longitude":-84.91727242,"__OBJECTID":11}},{"geometry":{"x":-9917393.47,"y":4432960.68,"spatialReference":{"wkid":102100}},"attributes":{"Water_works":"Wickliffe Municipal Water System","Source":"GW","PFBS":0,"HFPO_DA":0,"PFHpA":0,"PFHxS":0,"ADONA":0,"PFOA":0,"PFOS":0,"PFNA":0,"Total_PFAS":0,"Unit":"ng/L","Latitude":36.95589344,"Longitude":-89.08946132,"__OBJECTID":12}},{"geometry":{"x":-9442768.54,"y":4718528.77,"spatialReference":{"wkid":102100}},"attributes":{"Water_works":"Arlinghaus WTP","Source":"GW","PFBS":0,"HFPO_DA":0,"PFHpA":0,"PFHxS":0,"ADONA":0,"PFOA":0,"PFOS":0,"PFNA":0,"Total_PFAS":0,"Unit":"ng/L","Latitude":38.978056,"Longitude":-84.825833,"__OBJECTID":13}},{"geometry":{"x":-9909042.58,"y":4409837.14,"spatialReference":{"wkid":102100}},"attributes":{"Water_works":"Arlington Water Department","Source":"GW","PFBS":0,"HFPO_DA":0,"PFHpA":0,"PFHxS":0,"ADONA":0,"PFOA":0,"PFOS":0,"PFNA":0,"Total_PFAS":0,"Unit":"ng/L","Latitude":36.789722,"Longitude":-89.014444,"__OBJECTID":14}},{"geometry":{"x":-9447190.48,"y":4731822.88,"spatialReference":{"wkid":102100}},"attributes":{"Water_works":"Birkle WTP","Source":"GW","PFBS":0,"HFPO_DA":0,"PFHpA":0,"PFHxS":0,"ADONA":0,"PFOA":0,"PFOS":0,"PFNA":0,"Total_PFAS":0,"Unit":"ng/L","Latitude":39.070833,"Longitude":-84.865556,"__OBJECTID":15}},{"geometry":{"x":-9918906.82,"y":4405552.1,"spatialReference":{"wkid":102100}},"attributes":{"Water_works":"Columbus Water Works","Source":"GW","PFBS":0,"HFPO_DA":0,"PFHpA":0,"PFHxS":0,"ADONA":0,"PFOA":0,"PFOS":0,"PFNA":0,"Total_PFAS":0,"Unit":"ng/L","Latitude":36.758889,"Longitude":-89.103056,"__OBJECTID":16}},{"geometry":{"x":-9202102.03,"y":4468573.93,"spatialReference":{"wkid":102100}},"attributes":{"Water_works":"Fleming Neon (Shea Fk Mine)","Source":"GW","PFBS":0,"HFPO_DA":0,"PFHpA":0,"PFHxS":0,"ADONA":0,"PFOA":0,"PFOS":0,"PFNA":0,"Total_PFAS":0,"Unit":"ng/L","Latitude":37.211111,"Longitude":-82.663889,"__OBJECTID":17}},{"geometry":{"x":-9221088.13,"y":4505602.09,"spatialReference":{"wkid":102100}},"attributes":{"Water_works":"Francis Water Co","Source":"GW","PFBS":0,"HFPO_DA":0,"PFHpA":0,"PFHxS":0,"ADONA":0,"PFOA":0,"PFOS":0,"PFNA":0,"Total_PFAS":0,"Unit":"ng/L","Latitude":37.475556,"Longitude":-82.834444,"__OBJECTID":18}},{"geometry":{"x":-9452323.53,"y":4688819.08,"spatialReference":{"wkid":102100}},"attributes":{"Water_works":"Gallatin Co WD - Plant A","Source":"GW","PFBS":0,"HFPO_DA":0,"PFHpA":0,"PFHxS":0,"ADONA":0,"PFOA":0,"PFOS":0,"PFNA":0,"Total_PFAS":0,"Unit":"ng/L","Latitude":38.770278,"Longitude":-84.911667,"__OBJECTID":19}},{"geometry":{"x":-9440620.15,"y":4694812.55,"spatialReference":{"wkid":102100}},"attributes":{"Water_works":"Gallatin Co WD - Plant B","Source":"GW","PFBS":0,"HFPO_DA":0,"PFHpA":0,"PFHxS":0,"ADONA":0,"PFOA":0,"PFOS":0,"PFNA":0,"Total_PFAS":0,"Unit":"ng/L","Latitude":38.81224289,"Longitude":-84.80653369,"__OBJECTID":20}},{"geometry":{"x":-9872523.01,"y":4388666.6,"spatialReference":{"wkid":102100}},"attributes":{"Water_works":"Graves County Water District South","Source":"GW","PFBS":0,"HFPO_DA":0,"PFHpA":0,"PFHxS":0,"ADONA":0,"PFOA":0,"PFOS":0,"PFNA":0,"Total_PFAS":0,"Unit":"ng/L","Latitude":36.63726867,"Longitude":-88.68638317,"__OBJECTID":21}},{"geometry":{"x":-9894973.13,"y":4450806.29,"spatialReference":{"wkid":102100}},"attributes":{"Water_works":"Kevil WTP","Source":"GW","PFBS":0,"HFPO_DA":0,"PFHpA":0,"PFHxS":0,"ADONA":0,"PFOA":0,"PFOS":0,"PFNA":0,"Total_PFAS":0,"Unit":"ng/L","Latitude":37.083889,"Longitude":-88.888056,"__OBJECTID":22}},{"geometry":{"x":-9495552.56,"y":4682396.05,"spatialReference":{"wkid":102100}},"attributes":{"Water_works":"Milton Water & Sewer Dept","Source":"GW","PFBS":0,"HFPO_DA":0,"PFHpA":0,"PFHxS":0,"ADONA":0,"PFOA":0,"PFOS":0,"PFNA":0,"Total_PFAS":0,"Unit":"ng/L","Latitude":38.725278,"Longitude":-85.3,"__OBJECTID":23}},{"geometry":{"x":-9290848.38,"y":4523384.52,"spatialReference":{"wkid":102100}},"attributes":{"Water_works":"Mt Carmel High","Source":"GW","PFBS":0,"HFPO_DA":0,"PFHpA":0,"PFHxS":0,"ADONA":0,"PFOA":0,"PFOS":0,"PFNA":0,"Total_PFAS":0,"Unit":"ng/L","Latitude":37.602222,"Longitude":-83.461111,"__OBJECTID":24}},{"geometry":{"x":-9443077.78,"y":4719403.88,"spatialReference":{"wkid":102100}},"attributes":{"Water_works":"Trapps Water Co","Source":"GW","PFBS":0,"HFPO_DA":0,"PFHpA":0,"PFHxS":0,"ADONA":0,"PFOA":0,"PFOS":0,"PFNA":0,"Total_PFAS":0,"Unit":"ng/L","Latitude":38.984167,"Longitude":-84.828611,"__OBJECTID":25}},{"geometry":{"x":-9506993.76,"y":4655913.95,"spatialReference":{"wkid":102100}},"attributes":{"Water_works":"Trimble County WD#1","Source":"GW","PFBS":0,"HFPO_DA":0,"PFHpA":0,"PFHxS":0,"ADONA":0,"PFOA":0,"PFOS":0,"PFNA":0,"Total_PFAS":0,"Unit":"ng/L","Latitude":38.539444,"Longitude":-85.402778,"__OBJECTID":26}},{"geometry":{"x":-9907020.16,"y":4393432.94,"spatialReference":{"wkid":102100}},"attributes":{"Water_works":"Water Service Corp of KY  Clinton","Source":"GW","PFBS":0,"HFPO_DA":0,"PFHpA":0,"PFHxS":0,"ADONA":0,"PFOA":0,"PFOS":0,"PFNA":0,"Total_PFAS":0,"Unit":"ng/L","Latitude":36.67161843,"Longitude":-88.99627627,"__OBJECTID":27}}],"geometryType":"esriGeometryPoint"},"nextObjectId":28,"popupInfo":{"title":"","fieldInfos":[{"fieldName":"__OBJECTID","label":"__OBJECTID","isEditable":false,"tooltip":"","visible":false,"format":null,"stringFieldOption":"textbox"},{"fieldName":"Water_works","label":"Water works","isEditable":true,"tooltip":"","visible":true,"format":null,"stringFieldOption":"textbox"},{"fieldName":"Source","label":"Source","isEditable":true,"tooltip":"","visible":true,"format":null,"stringFieldOption":"textbox"},{"fieldName":"PFBS","label":"PFBS","isEditable":true,"tooltip":"","visible":true,"format":{"places":0,"digitSeparator":true},"stringFieldOption":"textbox"},{"fieldName":"HFPO_DA","label":"HFPO- DA","isEditable":true,"tooltip":"","visible":true,"format":{"places":0,"digitSeparator":true},"stringFieldOption":"textbox"},{"fieldName":"PFHpA","label":"PFHpA","isEditable":true,"tooltip":"","visible":true,"format":{"places":0,"digitSeparator":true},"stringFieldOption":"textbox"},{"fieldName":"PFHxS","label":"PFHxS","isEditable":true,"tooltip":"","visible":true,"format":{"places":0,"digitSeparator":true},"stringFieldOption":"textbox"},{"fieldName":"ADONA","label":"ADONA","isEditable":true,"tooltip":"","visible":true,"format":{"places":0,"digitSeparator":true},"stringFieldOption":"textbox"},{"fieldName":"PFOA","label":"PFOA","isEditable":true,"tooltip":"","visible":true,"format":{"places":0,"digitSeparator":true},"stringFieldOption":"textbox"},{"fieldName":"PFOS","label":"PFOS","isEditable":true,"tooltip":"","visible":true,"format":{"places":0,"digitSeparator":true},"stringFieldOption":"textbox"},{"fieldName":"PFNA","label":"PFNA","isEditable":true,"tooltip":"","visible":true,"format":{"places":0,"digitSeparator":true},"stringFieldOption":"textbox"},{"fieldName":"Total_PFAS","label":"Total PFAS","isEditable":true,"tooltip":"","visible":true,"format":{"places":0,"digitSeparator":true},"stringFieldOption":"textbox"},{"fieldName":"Unit","label":"Unit","isEditable":true,"tooltip":"","visible":true,"format":null,"stringFieldOption":"textbox"},{"fieldName":"Latitude","label":"Latitude","isEditable":true,"tooltip":"","visible":true,"format":{"places":2,"digitSeparator":true},"stringFieldOption":"textbox"},{"fieldName":"Longitude","label":"Longitude","isEditable":true,"tooltip":"","visible":true,"format":{"places":2,"digitSeparator":true},"stringFieldOption":"textbox"}],"description":null,"showAttachments":false,"mediaInfos":[]}}],"showLegend":true,"visibility":false,"opacity":1}