{"layers":[{"layerDefinition":{"geometryType":"esriGeometryPoint","objectIdField":"__OBJECTID","type":"Feature Layer","drawingInfo":{"renderer":{"type":"simple","symbol":{"color":[77,77,77,255],"size":6,"angle":0,"xoffset":0,"yoffset":0,"type":"esriSMS","style":"esriSMSCircle","outline":{"color":[255,255,255,64],"width":0.75,"type":"esriSLS","style":"esriSLSSolid"}}},"fixedSymbols":true},"fields":[{"name":"__OBJECTID","alias":"__OBJECTID","type":"esriFieldTypeOID","editable":false,"nullable":false,"domain":null},{"name":"TYPE","alias":"TYPE","type":"esriFieldTypeString","length":255,"editable":true,"nullable":true,"domain":null},{"name":"WATER_SYSTEM","alias":"WATER_SYSTEM","type":"esriFieldTypeString","length":255,"editable":true,"nullable":true,"domain":null},{"name":"LATITUDE","alias":"LATITUDE","type":"esriFieldTypeDouble","editable":true,"nullable":true,"domain":null},{"name":"LONGITUDE","alias":"LONGITUDE","type":"esriFieldTypeDouble","editable":true,"nullable":true,"domain":null},{"name":"PFAS","alias":"PFAS","type":"esriFieldTypeString","length":255,"editable":true,"nullable":true,"domain":null},{"name":"CODE","alias":"CODE","type":"esriFieldTypeString","length":255,"editable":true,"nullable":true,"domain":null}],"capabilities":"Query,Editing","name":"Surface water sampled and not detected","extent":{"xmin":-9778117.7201,"ymin":4385882.8799,"xmax":-9179176.6699,"ymax":4604991.4101,"spatialReference":{"wkid":102100}},"typeIdField":"","templates":[],"types":[],"minScale":73957191,"maxScale":0,"spatialReference":{"wkid":102100}},"featureSet":{"features":[{"geometry":{"x":-9594793.89,"y":4404804.73,"spatialReference":{"wkid":102100}},"attributes":{"TYPE":"SW","WATER_SYSTEM":"SCOTTSVILLE WATER DEPARTMENT","LATITUDE":36.75351,"LONGITUDE":-86.1915,"PFAS":"ND","CODE":"KY0020386","__OBJECTID":0}},{"geometry":{"x":-9314216.23,"y":4402206.48,"spatialReference":{"wkid":102100}},"attributes":{"TYPE":"SW","WATER_SYSTEM":"BELL COUNTY FORESTRY CAMP","LATITUDE":36.734807,"LONGITUDE":-83.671028,"PFAS":"ND","CODE":"KY0070729","__OBJECTID":1}},{"geometry":{"x":-9320012.86,"y":4385882.88,"spatialReference":{"wkid":102100}},"attributes":{"TYPE":"SW","WATER_SYSTEM":"WATER SERVICE CORPORATION OF KENTUCKY","LATITUDE":36.6172,"LONGITUDE":-83.7231,"PFAS":"ND","CODE":"KY0070282","__OBJECTID":2}},{"geometry":{"x":-9268480.66,"y":4568283.32,"spatialReference":{"wkid":102100}},"attributes":{"TYPE":"SW","WATER_SYSTEM":"OLIVE HILL MUNICIPAL WATER WORKS","LATITUDE":37.9210819,"LONGITUDE":-83.2601784,"PFAS":"ND","CODE":"KY0220335","__OBJECTID":3}},{"geometry":{"x":-9749566.39,"y":4556563.74,"spatialReference":{"wkid":102100}},"attributes":{"TYPE":"SW","WATER_SYSTEM":"HENDERSON WATER UTILITY/SOUTH","LATITUDE":37.837985,"LONGITUDE":-87.581845,"PFAS":"ND","CODE":"KY0510510","__OBJECTID":4}},{"geometry":{"x":-9423006.21,"y":4513282.26,"spatialReference":{"wkid":102100}},"attributes":{"TYPE":"SW","WATER_SYSTEM":"STANFORD WATER WORKS","LATITUDE":37.530289,"LONGITUDE":-84.648305,"PFAS":"ND","CODE":"KY0690417","__OBJECTID":5}},{"geometry":{"x":-9527509.31,"y":4395790.67,"spatialReference":{"wkid":102100}},"attributes":{"TYPE":"SW","WATER_SYSTEM":"MONROE COUNTY WATER DISTRICT","LATITUDE":36.6886043,"LONGITUDE":-85.5870723,"PFAS":"ND","CODE":"KY0860150","__OBJECTID":6}},{"geometry":{"x":-9513508.4,"y":4552380.32,"spatialReference":{"wkid":102100}},"attributes":{"TYPE":"SW","WATER_SYSTEM":"BARDSTOWN MUNICIPAL WATER DEPT","LATITUDE":37.8083,"LONGITUDE":-85.4613,"PFAS":"ND","CODE":"KY0900017","__OBJECTID":7}},{"geometry":{"x":-9179176.67,"y":4515985.9,"spatialReference":{"wkid":102100}},"attributes":{"TYPE":"SW","WATER_SYSTEM":"MOUNTAIN WATER DISTRICT","LATITUDE":37.549547,"LONGITUDE":-82.457947,"PFAS":"ND","CODE":"KY0980575","__OBJECTID":8}},{"geometry":{"x":-9287857.2,"y":4604991.41,"spatialReference":{"wkid":102100}},"attributes":{"TYPE":"SW","WATER_SYSTEM":"MOREHEAD UTILITY PLANT BOARD","LATITUDE":38.1807509,"LONGITUDE":-83.4342408,"PFAS":"ND","CODE":"KY1030292","__OBJECTID":9}},{"geometry":{"x":-9499290.83,"y":4485366.86,"spatialReference":{"wkid":102100}},"attributes":{"TYPE":"SW","WATER_SYSTEM":"CAMPBELLSVILLE MUNICIPAL WATER","LATITUDE":37.3311569,"LONGITUDE":-85.3335814,"PFAS":"ND","CODE":"KY1090060","__OBJECTID":10}},{"geometry":{"x":-9778117.72,"y":4419615.8,"spatialReference":{"wkid":102100}},"attributes":{"TYPE":"SW","WATER_SYSTEM":"CADIZ MUNICIPAL WATER COUNTY","LATITUDE":36.860038,"LONGITUDE":-87.838326,"PFAS":"ND","CODE":"KY1110054","__OBJECTID":11}},{"geometry":{"x":-9622742.43,"y":4438416.43,"spatialReference":{"wkid":102100}},"attributes":{"TYPE":"SW","WATER_SYSTEM":"BOWLING GREEN MUNICIPAL UTILITIES","LATITUDE":36.995047,"LONGITUDE":-86.442566,"PFAS":"ND","CODE":"KY1140038","__OBJECTID":12}}],"geometryType":"esriGeometryPoint"},"nextObjectId":13,"popupInfo":{"title":"","fieldInfos":[{"fieldName":"__OBJECTID","label":"__OBJECTID","isEditable":false,"tooltip":"","visible":false,"format":null,"stringFieldOption":"textbox"},{"fieldName":"TYPE","label":"TYPE","isEditable":true,"tooltip":"","visible":true,"format":null,"stringFieldOption":"textbox"},{"fieldName":"WATER_SYSTEM","label":"WATER_SYSTEM","isEditable":true,"tooltip":"","visible":true,"format":null,"stringFieldOption":"textbox"},{"fieldName":"LATITUDE","label":"LATITUDE","isEditable":true,"tooltip":"","visible":true,"format":{"places":2,"digitSeparator":true},"stringFieldOption":"textbox"},{"fieldName":"LONGITUDE","label":"LONGITUDE","isEditable":true,"tooltip":"","visible":true,"format":{"places":2,"digitSeparator":true},"stringFieldOption":"textbox"},{"fieldName":"PFAS","label":"PFAS","isEditable":true,"tooltip":"","visible":true,"format":null,"stringFieldOption":"textbox"},{"fieldName":"CODE","label":"CODE","isEditable":true,"tooltip":"","visible":true,"format":null,"stringFieldOption":"textbox"}],"description":null,"showAttachments":false,"mediaInfos":[]}}],"showLegend":true,"visibility":true,"opacity":1}