{"layers":[{"layerDefinition":{"geometryType":"esriGeometryPoint","objectIdField":"__OBJECTID","type":"Feature Layer","drawingInfo":{"renderer":{"type":"simple","symbol":{"color":[77,77,77,255],"size":6,"angle":0,"xoffset":0,"yoffset":0,"type":"esriSMS","style":"esriSMSCircle","outline":{"color":[255,255,255,64],"width":0.75,"type":"esriSLS","style":"esriSLSSolid"}}},"fixedSymbols":true},"fields":[{"name":"__OBJECTID","alias":"__OBJECTID","type":"esriFieldTypeOID","editable":false,"nullable":false,"domain":null},{"name":"FACILITY_NAME","alias":"FACILITY NAME","type":"esriFieldTypeString","length":255,"editable":true,"nullable":true,"domain":null},{"name":"STATE","alias":"STATE","type":"esriFieldTypeString","length":255,"editable":true,"nullable":true,"domain":null},{"name":"COUNTY","alias":"COUNTY","type":"esriFieldTypeString","length":255,"editable":true,"nullable":true,"domain":null},{"name":"LATITUDE","alias":"LATITUDE","type":"esriFieldTypeDouble","editable":true,"nullable":true,"domain":null},{"name":"LONGITUDE","alias":"LONGITUDE","type":"esriFieldTypeDouble","editable":true,"nullable":true,"domain":null},{"name":"INDUSTRY_SECTOR","alias":"INDUSTRY SECTOR","type":"esriFieldTypeString","length":255,"editable":true,"nullable":true,"domain":null},{"name":"INDICATOR_SCORE","alias":"INDICATOR SCORE","type":"esriFieldTypeInteger","editable":true,"nullable":true,"domain":null}],"capabilities":"Query,Editing","name":"TRI DATA IN KENTUCKY","extent":{"xmin":-9930845.8401,"ymin":4377740.8699,"xmax":-9192860.3999,"ymax":4732920.8401,"spatialReference":{"wkid":102100}},"typeIdField":"","templates":[],"types":[],"minScale":9244649,"maxScale":0,"spatialReference":{"wkid":102100}},"featureSet":{"features":[{"geometry":{"x":-9419733.97,"y":4710217.3,"spatialReference":{"wkid":102100}},"attributes":{"FACILITY_NAME":"LYONS EAST","STATE":"KY","COUNTY":"BOONE","LATITUDE":38.91999,"LONGITUDE":-84.61891,"INDUSTRY_SECTOR":"BEVERAGES","INDICATOR_SCORE":50,"__OBJECTID":0}},{"geometry":{"x":-9757691.38,"y":4552698.19,"spatialReference":{"wkid":102100}},"attributes":{"FACILITY_NAME":"BRENNTAG MID-SOUTH INC","STATE":"KY","COUNTY":"HENDERSON","LATITUDE":37.810556,"LONGITUDE":-87.654833,"INDUSTRY_SECTOR":"CHEMICAL WHOLESALERS","INDICATOR_SCORE":100,"__OBJECTID":1}},{"geometry":{"x":-9554401.61,"y":4609138.64,"spatialReference":{"wkid":102100}},"attributes":{"FACILITY_NAME":"FRONTIER LOGISTICAL SERVICES LLC","STATE":"KY","COUNTY":"JEFFERSON","LATITUDE":38.21003,"LONGITUDE":-85.82865,"INDUSTRY_SECTOR":"CHEMICAL WHOLESALERS","INDICATOR_SCORE":100,"__OBJECTID":2}},{"geometry":{"x":-9545965.82,"y":4601082,"spatialReference":{"wkid":102100}},"attributes":{"FACILITY_NAME":"UNIVAR USA INC","STATE":"KY","COUNTY":"JEFFERSON","LATITUDE":38.15314,"LONGITUDE":-85.75287,"INDUSTRY_SECTOR":"CHEMICAL WHOLESALERS","INDICATOR_SCORE":100,"__OBJECTID":3}},{"geometry":{"x":-9859742.07,"y":4447231.99,"spatialReference":{"wkid":102100}},"attributes":{"FACILITY_NAME":"AIRGAS USA LLC","STATE":"KY","COUNTY":"MCCRACKEN","LATITUDE":37.05827,"LONGITUDE":-88.57157,"INDUSTRY_SECTOR":"CHEMICAL WHOLESALERS","INDICATOR_SCORE":100,"__OBJECTID":4}},{"geometry":{"x":-9558107.88,"y":4607914.52,"spatialReference":{"wkid":102100}},"attributes":{"FACILITY_NAME":"SUPERIOR SOLVENTS & CHEMICALS","STATE":"KY","COUNTY":"JEFFERSON","LATITUDE":38.201389,"LONGITUDE":-85.861944,"INDUSTRY_SECTOR":"CHEMICAL WHOLESALERS","INDICATOR_SCORE":100,"__OBJECTID":5}},{"geometry":{"x":-9473823,"y":4679845.38,"spatialReference":{"wkid":102100}},"attributes":{"FACILITY_NAME":"DOW SILICONES CORP","STATE":"KY","COUNTY":"CARROLL","LATITUDE":38.7074,"LONGITUDE":-85.1048,"INDUSTRY_SECTOR":"CHEMICALS","INDICATOR_SCORE":100,"__OBJECTID":6}},{"geometry":{"x":-9555728.76,"y":4609371.84,"spatialReference":{"wkid":102100}},"attributes":{"FACILITY_NAME":"DUPONT LOUISVILLE PLANT","STATE":"KY","COUNTY":"JEFFERSON","LATITUDE":38.211676,"LONGITUDE":-85.840572,"INDUSTRY_SECTOR":"CHEMICALS","INDICATOR_SCORE":100,"__OBJECTID":7}},{"geometry":{"x":-9836041.04,"y":4445762.8,"spatialReference":{"wkid":102100}},"attributes":{"FACILITY_NAME":"ISP CHEMICALS LLC","STATE":"KY","COUNTY":"MARSHALL","LATITUDE":37.047737,"LONGITUDE":-88.35866,"INDUSTRY_SECTOR":"CHEMICALS","INDICATOR_SCORE":100,"__OBJECTID":8}},{"geometry":{"x":-9545602.92,"y":4604103.39,"spatialReference":{"wkid":102100}},"attributes":{"FACILITY_NAME":"CLARIANT CORP CRITTENDEN DRIVE FACILITY","STATE":"KY","COUNTY":"JEFFERSON","LATITUDE":38.17448,"LONGITUDE":-85.74961,"INDUSTRY_SECTOR":"CHEMICALS","INDICATOR_SCORE":100,"__OBJECTID":9}},{"geometry":{"x":-9417982.92,"y":4704479.99,"spatialReference":{"wkid":102100}},"attributes":{"FACILITY_NAME":"BEST SANITIZERS INC","STATE":"KY","COUNTY":"BOONE","LATITUDE":38.87988,"LONGITUDE":-84.60318,"INDUSTRY_SECTOR":"CHEMICALS","INDICATOR_SCORE":100,"__OBJECTID":10}},{"geometry":{"x":-9914794.12,"y":4432139.72,"spatialReference":{"wkid":102100}},"attributes":{"FACILITY_NAME":"INGEVITY VIRGINIA CORP-WICKLIFFE CARBON PLANT","STATE":"KY","COUNTY":"BALLARD","LATITUDE":36.95,"LONGITUDE":-89.066111,"INDUSTRY_SECTOR":"CHEMICALS","INDICATOR_SCORE":100,"__OBJECTID":11}},{"geometry":{"x":-9419615.97,"y":4718138.42,"spatialReference":{"wkid":102100}},"attributes":{"FACILITY_NAME":"CELANESE ENGINEERED MATERIALS","STATE":"KY","COUNTY":"BOONE","LATITUDE":38.97533,"LONGITUDE":-84.61785,"INDUSTRY_SECTOR":"CHEMICALS","INDICATOR_SCORE":100,"__OBJECTID":12}},{"geometry":{"x":-9418666.42,"y":4717734.63,"spatialReference":{"wkid":102100}},"attributes":{"FACILITY_NAME":"A O SMITH CORP PROTECTIVE COATINGS DIV","STATE":"KY","COUNTY":"KENTON","LATITUDE":38.97251,"LONGITUDE":-84.60932,"INDUSTRY_SECTOR":"CHEMICALS","INDICATOR_SCORE":100,"__OBJECTID":13}},{"geometry":{"x":-9563917.2,"y":4535567.74,"spatialReference":{"wkid":102100}},"attributes":{"FACILITY_NAME":"FLINT CPS INKS NA LLC","STATE":"KY","COUNTY":"HARDIN","LATITUDE":37.68888,"LONGITUDE":-85.91413,"INDUSTRY_SECTOR":"CHEMICALS","INDICATOR_SCORE":100,"__OBJECTID":14}},{"geometry":{"x":-9478449.77,"y":4676786.49,"spatialReference":{"wkid":102100}},"attributes":{"FACILITY_NAME":"PMC ORGANOMETALLIX INC","STATE":"KY","COUNTY":"CARROLL","LATITUDE":38.685954,"LONGITUDE":-85.146363,"INDUSTRY_SECTOR":"CHEMICALS","INDICATOR_SCORE":100,"__OBJECTID":15}},{"geometry":{"x":-9383486.12,"y":4632254.46,"spatialReference":{"wkid":102100}},"attributes":{"FACILITY_NAME":"CHROMASCAPE INC","STATE":"KY","COUNTY":"HARRISON","LATITUDE":38.37301,"LONGITUDE":-84.29329,"INDUSTRY_SECTOR":"CHEMICALS","INDICATOR_SCORE":100,"__OBJECTID":16}},{"geometry":{"x":-9701091.65,"y":4550623.88,"spatialReference":{"wkid":102100}},"attributes":{"FACILITY_NAME":"DART POLYMERS INC","STATE":"KY","COUNTY":"DAVIESS","LATITUDE":37.795833,"LONGITUDE":-87.146389,"INDUSTRY_SECTOR":"CHEMICALS","INDICATOR_SCORE":100,"__OBJECTID":17}},{"geometry":{"x":-9492667.16,"y":4608156.89,"spatialReference":{"wkid":102100}},"attributes":{"FACILITY_NAME":"GREENFIELD GLOBAL USA INC","STATE":"KY","COUNTY":"SHELBY","LATITUDE":38.2031,"LONGITUDE":-85.27408,"INDUSTRY_SECTOR":"CHEMICALS","INDICATOR_SCORE":100,"__OBJECTID":18}},{"geometry":{"x":-9549764.04,"y":4610687.25,"spatialReference":{"wkid":102100}},"attributes":{"FACILITY_NAME":"PARALLEL PRODUCTS OF KENTUCKY","STATE":"KY","COUNTY":"JEFFERSON","LATITUDE":38.22096,"LONGITUDE":-85.78699,"INDUSTRY_SECTOR":"CHEMICALS","INDICATOR_SCORE":100,"__OBJECTID":19}},{"geometry":{"x":-9418808.91,"y":4710710.94,"spatialReference":{"wkid":102100}},"attributes":{"FACILITY_NAME":"KUSTOM GROUP","STATE":"KY","COUNTY":"BOONE","LATITUDE":38.92344,"LONGITUDE":-84.6106,"INDUSTRY_SECTOR":"CHEMICALS","INDICATOR_SCORE":100,"__OBJECTID":20}},{"geometry":{"x":-9548484.98,"y":4612479.98,"spatialReference":{"wkid":102100}},"attributes":{"FACILITY_NAME":"CLARIANT CORP 12TH STREET FACILITY","STATE":"KY","COUNTY":"JEFFERSON","LATITUDE":38.233611,"LONGITUDE":-85.7755,"INDUSTRY_SECTOR":"CHEMICALS","INDICATOR_SCORE":100,"__OBJECTID":21}},{"geometry":{"x":-9382656.01,"y":4539985.49,"spatialReference":{"wkid":102100}},"attributes":{"FACILITY_NAME":"SHERWIN-WILLIAMS CO","STATE":"KY","COUNTY":"MADISON","LATITUDE":37.720278,"LONGITUDE":-84.285833,"INDUSTRY_SECTOR":"CHEMICALS","INDICATOR_SCORE":100,"__OBJECTID":22}},{"geometry":{"x":-9548971.45,"y":4611897.39,"spatialReference":{"wkid":102100}},"attributes":{"FACILITY_NAME":"KELLEY TECHNICAL COATINGS INC","STATE":"KY","COUNTY":"JEFFERSON","LATITUDE":38.2295,"LONGITUDE":-85.77987,"INDUSTRY_SECTOR":"CHEMICALS","INDICATOR_SCORE":100,"__OBJECTID":23}},{"geometry":{"x":-9832342.67,"y":4445560.7,"spatialReference":{"wkid":102100}},"attributes":{"FACILITY_NAME":"LUBRIZOL ADVANCED MATERIALS INC","STATE":"KY","COUNTY":"MARSHALL","LATITUDE":37.046288,"LONGITUDE":-88.325437,"INDUSTRY_SECTOR":"CHEMICALS","INDICATOR_SCORE":100,"__OBJECTID":24}},{"geometry":{"x":-9431235.5,"y":4588514.65,"spatialReference":{"wkid":102100}},"attributes":{"FACILITY_NAME":"YOKOHAMA INDUSTRIES AMERICAS (SEALANT DIV)","STATE":"KY","COUNTY":"WOODFORD","LATITUDE":38.06431,"LONGITUDE":-84.72223,"INDUSTRY_SECTOR":"CHEMICALS","INDICATOR_SCORE":100,"__OBJECTID":25}},{"geometry":{"x":-9730446.71,"y":4413131.75,"spatialReference":{"wkid":102100}},"attributes":{"FACILITY_NAME":"COMMONWEALTH AGRI-ENERGY LLC","STATE":"KY","COUNTY":"CHRISTIAN","LATITUDE":36.81342,"LONGITUDE":-87.41009,"INDUSTRY_SECTOR":"CHEMICALS","INDICATOR_SCORE":100,"__OBJECTID":26}},{"geometry":{"x":-9554397.27,"y":4610748.03,"spatialReference":{"wkid":102100}},"attributes":{"FACILITY_NAME":"LUBRIZOL ADVANCED MATERIALS INC","STATE":"KY","COUNTY":"JEFFERSON","LATITUDE":38.221389,"LONGITUDE":-85.828611,"INDUSTRY_SECTOR":"CHEMICALS","INDICATOR_SCORE":100,"__OBJECTID":27}},{"geometry":{"x":-9546148.94,"y":4599395.85,"spatialReference":{"wkid":102100}},"attributes":{"FACILITY_NAME":"LOUISVILLE PACKAGING","STATE":"KY","COUNTY":"JEFFERSON","LATITUDE":38.141228,"LONGITUDE":-85.754515,"INDUSTRY_SECTOR":"CHEMICALS","INDICATOR_SCORE":100,"__OBJECTID":28}},{"geometry":{"x":-9418690.91,"y":4718006.69,"spatialReference":{"wkid":102100}},"attributes":{"FACILITY_NAME":"CAMCO CHEMICAL CO INC","STATE":"KY","COUNTY":"KENTON","LATITUDE":38.97441,"LONGITUDE":-84.60954,"INDUSTRY_SECTOR":"CHEMICALS","INDICATOR_SCORE":100,"__OBJECTID":29}},{"geometry":{"x":-9370829.09,"y":4581747.08,"spatialReference":{"wkid":102100}},"attributes":{"FACILITY_NAME":"CATALENT PHARMA SOLUTIONS","STATE":"KY","COUNTY":"CLARK","LATITUDE":38.01643,"LONGITUDE":-84.17959,"INDUSTRY_SECTOR":"CHEMICALS","INDICATOR_SCORE":100,"__OBJECTID":30}},{"geometry":{"x":-9629122.6,"y":4429561.67,"spatialReference":{"wkid":102100}},"attributes":{"FACILITY_NAME":"SHERWIN-WILLIAMS CO","STATE":"KY","COUNTY":"WARREN","LATITUDE":36.93149,"LONGITUDE":-86.49988,"INDUSTRY_SECTOR":"CHEMICALS","INDICATOR_SCORE":100,"__OBJECTID":31}},{"geometry":{"x":-9835355.31,"y":4445226.11,"spatialReference":{"wkid":102100}},"attributes":{"FACILITY_NAME":"SEKISUI SPECIALTY CHEMICALS AMERICA LLC","STATE":"KY","COUNTY":"MARSHALL","LATITUDE":37.043889,"LONGITUDE":-88.3525,"INDUSTRY_SECTOR":"CHEMICALS","INDICATOR_SCORE":100,"__OBJECTID":32}},{"geometry":{"x":-9520428.02,"y":4609315.74,"spatialReference":{"wkid":102100}},"attributes":{"FACILITY_NAME":"EUROFINS MWG OPERON LLC","STATE":"KY","COUNTY":"JEFFERSON","LATITUDE":38.21128,"LONGITUDE":-85.52346,"INDUSTRY_SECTOR":"CHEMICALS","INDICATOR_SCORE":100,"__OBJECTID":33}},{"geometry":{"x":-9551570.76,"y":4617960.15,"spatialReference":{"wkid":102100}},"attributes":{"FACILITY_NAME":"BASF CORP","STATE":"KY","COUNTY":"JEFFERSON","LATITUDE":38.27227,"LONGITUDE":-85.80322,"INDUSTRY_SECTOR":"CHEMICALS","INDICATOR_SCORE":100,"__OBJECTID":34}},{"geometry":{"x":-9835138.91,"y":4445497.24,"spatialReference":{"wkid":102100}},"attributes":{"FACILITY_NAME":"WESTLAKE PVC CORP","STATE":"KY","COUNTY":"MARSHALL","LATITUDE":37.045833,"LONGITUDE":-88.350556,"INDUSTRY_SECTOR":"CHEMICALS","INDICATOR_SCORE":100,"__OBJECTID":35}},{"geometry":{"x":-9555885.39,"y":4610149.67,"spatialReference":{"wkid":102100}},"attributes":{"FACILITY_NAME":"CHEMOURS LOUISVILLE PLANT","STATE":"KY","COUNTY":"JEFFERSON","LATITUDE":38.217166,"LONGITUDE":-85.841979,"INDUSTRY_SECTOR":"CHEMICALS","INDICATOR_SCORE":100,"__OBJECTID":36}},{"geometry":{"x":-9419310.96,"y":4714114.11,"spatialReference":{"wkid":102100}},"attributes":{"FACILITY_NAME":"BENDA-LUTZ CORP","STATE":"KY","COUNTY":"BOONE","LATITUDE":38.94722,"LONGITUDE":-84.61511,"INDUSTRY_SECTOR":"CHEMICALS","INDICATOR_SCORE":100,"__OBJECTID":37}},{"geometry":{"x":-9419565.88,"y":4714567.85,"spatialReference":{"wkid":102100}},"attributes":{"FACILITY_NAME":"MAGNI INDUSTRIES INC","STATE":"KY","COUNTY":"BOONE","LATITUDE":38.95039,"LONGITUDE":-84.6174,"INDUSTRY_SECTOR":"CHEMICALS","INDICATOR_SCORE":100,"__OBJECTID":38}},{"geometry":{"x":-9555314.43,"y":4532225.92,"spatialReference":{"wkid":102100}},"attributes":{"FACILITY_NAME":"DOW SILICONES CORP","STATE":"KY","COUNTY":"HARDIN","LATITUDE":37.66512,"LONGITUDE":-85.83685,"INDUSTRY_SECTOR":"CHEMICALS","INDICATOR_SCORE":100,"__OBJECTID":39}},{"geometry":{"x":-9835593.42,"y":4445191.25,"spatialReference":{"wkid":102100}},"attributes":{"FACILITY_NAME":"ESTRON CHEMICALS INC","STATE":"KY","COUNTY":"MARSHALL","LATITUDE":37.043639,"LONGITUDE":-88.354639,"INDUSTRY_SECTOR":"CHEMICALS","INDICATOR_SCORE":100,"__OBJECTID":40}},{"geometry":{"x":-9546048.31,"y":4604924.44,"spatialReference":{"wkid":102100}},"attributes":{"FACILITY_NAME":"ALLNEX USA INC","STATE":"KY","COUNTY":"JEFFERSON","LATITUDE":38.180278,"LONGITUDE":-85.753611,"INDUSTRY_SECTOR":"CHEMICALS","INDICATOR_SCORE":100,"__OBJECTID":41}},{"geometry":{"x":-9559252.03,"y":4607048.89,"spatialReference":{"wkid":102100}},"attributes":{"FACILITY_NAME":"HEXION INC","STATE":"KY","COUNTY":"JEFFERSON","LATITUDE":38.195278,"LONGITUDE":-85.872222,"INDUSTRY_SECTOR":"CHEMICALS","INDICATOR_SCORE":100,"__OBJECTID":42}},{"geometry":{"x":-9554230.74,"y":4610826.96,"spatialReference":{"wkid":102100}},"attributes":{"FACILITY_NAME":"ZEON CHEMICALS LP","STATE":"KY","COUNTY":"JEFFERSON","LATITUDE":38.221946,"LONGITUDE":-85.827115,"INDUSTRY_SECTOR":"CHEMICALS","INDICATOR_SCORE":100,"__OBJECTID":43}},{"geometry":{"x":-9717634.95,"y":4472496.22,"spatialReference":{"wkid":102100}},"attributes":{"FACILITY_NAME":"DYNO NOBEL INC","STATE":"KY","COUNTY":"MUHLENBERG","LATITUDE":37.239167,"LONGITUDE":-87.295,"INDUSTRY_SECTOR":"CHEMICALS","INDICATOR_SCORE":100,"__OBJECTID":44}},{"geometry":{"x":-9726911.31,"y":4409938.19,"spatialReference":{"wkid":102100}},"attributes":{"FACILITY_NAME":"AMFINE CHEMICAL CORP","STATE":"KY","COUNTY":"CHRISTIAN","LATITUDE":36.790449,"LONGITUDE":-87.378331,"INDICATOR_SCORE":100,"__OBJECTID":45,"INDUSTRY_SECTOR":null}},{"geometry":{"x":-9545519.43,"y":4615420.93,"spatialReference":{"wkid":102100}},"attributes":{"FACILITY_NAME":"MARCUS PAINT CO","STATE":"KY","COUNTY":"JEFFERSON","LATITUDE":38.25436,"LONGITUDE":-85.74886,"INDICATOR_SCORE":100,"__OBJECTID":46,"INDUSTRY_SECTOR":null}},{"geometry":{"x":-9586601.33,"y":4579792.69,"spatialReference":{"wkid":102100}},"attributes":{"FACILITY_NAME":"MONUMENT CHEMICAL KENTUCKY LLC","STATE":"KY","COUNTY":"MEADE","LATITUDE":38.002597,"LONGITUDE":-86.117905,"INDICATOR_SCORE":100,"__OBJECTID":47,"INDUSTRY_SECTOR":null}},{"geometry":{"x":-9535596.63,"y":4422045.59,"spatialReference":{"wkid":102100}},"attributes":{"FACILITY_NAME":"KINGSFORD MANUFACTURING CO","STATE":"KY","COUNTY":"METCALFE","LATITUDE":36.8775,"LONGITUDE":-85.659722,"INDICATOR_SCORE":100,"__OBJECTID":48,"INDUSTRY_SECTOR":null}},{"geometry":{"x":-9561758.72,"y":4600760.66,"spatialReference":{"wkid":102100}},"attributes":{"FACILITY_NAME":"ZSCHIMMER & SCHWARZ INTERPOLYMER","STATE":"KY","COUNTY":"JEFFERSON","LATITUDE":38.15087,"LONGITUDE":-85.89474,"INDICATOR_SCORE":100,"__OBJECTID":49,"INDUSTRY_SECTOR":null}},{"geometry":{"x":-9690361.67,"y":4552972.11,"spatialReference":{"wkid":102100}},"attributes":{"FACILITY_NAME":"OWENSBORO SPECIALTY POLYMERS INC","STATE":"KY","COUNTY":"DAVIESS","LATITUDE":37.8125,"LONGITUDE":-87.05,"INDICATOR_SCORE":100,"__OBJECTID":50,"INDUSTRY_SECTOR":null}},{"geometry":{"x":-9407828.35,"y":4728112.32,"spatialReference":{"wkid":102100}},"attributes":{"FACILITY_NAME":"INTERPLASTIC CORP-FORT WRIGHT","STATE":"KY","COUNTY":"KENTON","LATITUDE":39.04495,"LONGITUDE":-84.51196,"INDICATOR_SCORE":100,"__OBJECTID":51,"INDUSTRY_SECTOR":null}},{"geometry":{"x":-9835000.54,"y":4445352.61,"spatialReference":{"wkid":102100}},"attributes":{"FACILITY_NAME":"WACKER CHEMICAL CORP POLYMERS DIV","STATE":"KY","COUNTY":"MARSHALL","LATITUDE":37.044796,"LONGITUDE":-88.349313,"INDICATOR_SCORE":100,"__OBJECTID":52,"INDUSTRY_SECTOR":null}},{"geometry":{"x":-9833407.22,"y":4446737.08,"spatialReference":{"wkid":102100}},"attributes":{"FACILITY_NAME":"EVONIK CORP","STATE":"KY","COUNTY":"MARSHALL","LATITUDE":37.054722,"LONGITUDE":-88.335,"INDICATOR_SCORE":100,"__OBJECTID":53,"INDUSTRY_SECTOR":null}},{"geometry":{"x":-9739099.8,"y":4477808.65,"spatialReference":{"wkid":102100}},"attributes":{"FACILITY_NAME":"JLOK CORP","STATE":"KY","COUNTY":"HOPKINS","LATITUDE":37.27715,"LONGITUDE":-87.487822,"INDICATOR_SCORE":100,"__OBJECTID":54,"INDUSTRY_SECTOR":null}},{"geometry":{"x":-9556501.21,"y":4609037.63,"spatialReference":{"wkid":102100}},"attributes":{"FACILITY_NAME":"AMERICAN SYNTHETIC RUBBER CO","STATE":"KY","COUNTY":"JEFFERSON","LATITUDE":38.209317,"LONGITUDE":-85.847511,"INDICATOR_SCORE":100,"__OBJECTID":55,"INDUSTRY_SECTOR":null}},{"geometry":{"x":-9556566.78,"y":4609460.25,"spatialReference":{"wkid":102100}},"attributes":{"FACILITY_NAME":"ROHM & HAAS - LOUISVILLE PL ANT","STATE":"KY","COUNTY":"JEFFERSON","LATITUDE":38.2123,"LONGITUDE":-85.8481,"INDICATOR_SCORE":100,"__OBJECTID":56,"INDUSTRY_SECTOR":null}},{"geometry":{"x":-9548405.5,"y":4612449.51,"spatialReference":{"wkid":102100}},"attributes":{"FACILITY_NAME":"ZEOCHEM LLC","STATE":"KY","COUNTY":"JEFFERSON","LATITUDE":38.233396,"LONGITUDE":-85.774786,"INDICATOR_SCORE":100,"__OBJECTID":57,"INDUSTRY_SECTOR":null}},{"geometry":{"x":-9548902.43,"y":4612142.55,"spatialReference":{"wkid":102100}},"attributes":{"FACILITY_NAME":"KELLEY TECHNICAL COATINGS INC","STATE":"KY","COUNTY":"JEFFERSON","LATITUDE":38.23123,"LONGITUDE":-85.77925,"INDICATOR_SCORE":100,"__OBJECTID":58,"INDUSTRY_SECTOR":null}},{"geometry":{"x":-9554639.84,"y":4611023.07,"spatialReference":{"wkid":102100}},"attributes":{"FACILITY_NAME":"GEON PERFORMANCE SOLUTIONS","STATE":"KY","COUNTY":"JEFFERSON","LATITUDE":38.22333,"LONGITUDE":-85.83079,"INDICATOR_SCORE":100,"__OBJECTID":59,"INDUSTRY_SECTOR":null}},{"geometry":{"x":-9545848.94,"y":4601138.63,"spatialReference":{"wkid":102100}},"attributes":{"FACILITY_NAME":"PPG ARCHITECTURAL COATINGS","STATE":"KY","COUNTY":"JEFFERSON","LATITUDE":38.15354,"LONGITUDE":-85.75182,"INDICATOR_SCORE":100,"__OBJECTID":60,"INDUSTRY_SECTOR":null}},{"geometry":{"x":-9382394.08,"y":4609998.63,"spatialReference":{"wkid":102100}},"attributes":{"FACILITY_NAME":"ENNIS FLINT - PARIS","STATE":"KY","COUNTY":"BOURBON","LATITUDE":38.2161,"LONGITUDE":-84.28348,"INDICATOR_SCORE":100,"__OBJECTID":61,"INDUSTRY_SECTOR":null}},{"geometry":{"x":-9833314.49,"y":4446233.4,"spatialReference":{"wkid":102100}},"attributes":{"FACILITY_NAME":"WESTLAKE VINYLS INC","STATE":"KY","COUNTY":"MARSHALL","LATITUDE":37.051111,"LONGITUDE":-88.334167,"INDICATOR_SCORE":100,"__OBJECTID":62,"INDUSTRY_SECTOR":null}},{"geometry":{"x":-9836827.73,"y":4447012.85,"spatialReference":{"wkid":102100}},"attributes":{"FACILITY_NAME":"ARKEMA INC","STATE":"KY","COUNTY":"MARSHALL","LATITUDE":37.056699,"LONGITUDE":-88.365727,"INDICATOR_SCORE":100,"__OBJECTID":63,"INDUSTRY_SECTOR":null}},{"geometry":{"x":-9193793.25,"y":4627172.41,"spatialReference":{"wkid":102100}},"attributes":{"FACILITY_NAME":"CALGON CARBON CORP","STATE":"KY","COUNTY":"BOYD","LATITUDE":38.33721,"LONGITUDE":-82.58925,"INDICATOR_SCORE":100,"__OBJECTID":64,"INDUSTRY_SECTOR":null}},{"geometry":{"x":-9700697.8,"y":4549125.35,"spatialReference":{"wkid":102100}},"attributes":{"FACILITY_NAME":"OWENSBORO GRAIN BIODIESEL LLC","STATE":"KY","COUNTY":"DAVIESS","LATITUDE":37.785195,"LONGITUDE":-87.142851,"INDICATOR_SCORE":100,"__OBJECTID":65,"INDUSTRY_SECTOR":null}},{"geometry":{"x":-9829560.46,"y":4390062.9,"spatialReference":{"wkid":102100}},"attributes":{"FACILITY_NAME":"VANDERBILT CHEMICALS LLC-MURRAY DIV","STATE":"KY","COUNTY":"CALLOWAY","LATITUDE":36.647333,"LONGITUDE":-88.300444,"INDICATOR_SCORE":100,"__OBJECTID":66,"INDUSTRY_SECTOR":null}},{"geometry":{"x":-9755325.5,"y":4552099.93,"spatialReference":{"wkid":102100}},"attributes":{"FACILITY_NAME":"TEKNOR COLOR COMPANY/TEKNOR PE RFORMANCE ELASTOMERS","STATE":"KY","COUNTY":"HENDERSON","LATITUDE":37.80631,"LONGITUDE":-87.63358,"INDICATOR_SCORE":100,"__OBJECTID":67,"INDUSTRY_SECTOR":null}},{"geometry":{"x":-9832342.67,"y":4445560.7,"spatialReference":{"wkid":102100}},"attributes":{"FACILITY_NAME":"CYMETECH CORP","STATE":"KY","COUNTY":"MARSHALL","LATITUDE":37.046288,"LONGITUDE":-88.325437,"INDICATOR_SCORE":100,"__OBJECTID":68,"INDUSTRY_SECTOR":null}},{"geometry":{"x":-9555394.58,"y":4611049.99,"spatialReference":{"wkid":102100}},"attributes":{"FACILITY_NAME":"CARBIDE INDUSTRIES LLC","STATE":"KY","COUNTY":"JEFFERSON","LATITUDE":38.22352,"LONGITUDE":-85.83757,"INDICATOR_SCORE":100,"__OBJECTID":69,"INDUSTRY_SECTOR":null}},{"geometry":{"x":-9253841.88,"y":4668066.87,"spatialReference":{"wkid":102100}},"attributes":{"FACILITY_NAME":"NELSON BROTHERS LLC","STATE":"KY","COUNTY":"LEWIS","LATITUDE":38.624785,"LONGITUDE":-83.128676,"INDICATOR_SCORE":100,"__OBJECTID":70,"INDUSTRY_SECTOR":null}},{"geometry":{"x":-9563841.51,"y":4534878.47,"spatialReference":{"wkid":102100}},"attributes":{"FACILITY_NAME":"CYTECH PRODUCTS INC","STATE":"KY","COUNTY":"HARDIN","LATITUDE":37.68398,"LONGITUDE":-85.91345,"INDICATOR_SCORE":100,"__OBJECTID":71,"INDUSTRY_SECTOR":null}},{"geometry":{"x":-9411540.86,"y":4607543.53,"spatialReference":{"wkid":102100}},"attributes":{"FACILITY_NAME":"MINOVA USA INC","STATE":"KY","COUNTY":"SCOTT","LATITUDE":38.19877,"LONGITUDE":-84.54531,"INDICATOR_SCORE":100,"__OBJECTID":72,"INDUSTRY_SECTOR":null}},{"geometry":{"x":-9410297.2,"y":4722002.47,"spatialReference":{"wkid":102100}},"attributes":{"FACILITY_NAME":"IOFINA CHEMICAL INC","STATE":"KY","COUNTY":"KENTON","LATITUDE":39.00231,"LONGITUDE":-84.534138,"INDICATOR_SCORE":100,"__OBJECTID":73,"INDUSTRY_SECTOR":null}},{"geometry":{"x":-9216047.91,"y":4658207.27,"spatialReference":{"wkid":102100}},"attributes":{"FACILITY_NAME":"VEOLIA WURTLAND PLANT","STATE":"KY","COUNTY":"GREENUP","LATITUDE":38.555556,"LONGITUDE":-82.789167,"INDICATOR_SCORE":100,"__OBJECTID":74,"INDUSTRY_SECTOR":null}},{"geometry":{"x":-9523022.88,"y":4610222.5,"spatialReference":{"wkid":102100}},"attributes":{"FACILITY_NAME":"RUSSTECH ADMIXTURES INC","STATE":"KY","COUNTY":"JEFFERSON","LATITUDE":38.21768,"LONGITUDE":-85.54677,"INDICATOR_SCORE":100,"__OBJECTID":75,"INDUSTRY_SECTOR":null}},{"geometry":{"x":-9416170.64,"y":4434505.22,"spatialReference":{"wkid":102100}},"attributes":{"FACILITY_NAME":"KINGSFORD MANUFACTURING CO","STATE":"KY","COUNTY":"PULASKI","LATITUDE":36.96698,"LONGITUDE":-84.5869,"INDICATOR_SCORE":100,"__OBJECTID":76,"INDUSTRY_SECTOR":null}},{"geometry":{"x":-9378945.4,"y":4611928.85,"spatialReference":{"wkid":102100}},"attributes":{"FACILITY_NAME":"AVANTOR PERFORMANCE MATERIALS","STATE":"KY","COUNTY":"BOURBON","LATITUDE":38.229722,"LONGITUDE":-84.2525,"INDICATOR_SCORE":100,"__OBJECTID":77,"INDUSTRY_SECTOR":null}},{"geometry":{"x":-9695264.07,"y":4498145.64,"spatialReference":{"wkid":102100}},"attributes":{"FACILITY_NAME":"THE MUHLENBERG COUNTY COAL CO - PRIDE MINE","STATE":"KY","COUNTY":"MUHLENBERG","LATITUDE":37.422379,"LONGITUDE":-87.094039,"INDICATOR_SCORE":50,"__OBJECTID":78,"INDUSTRY_SECTOR":null}},{"geometry":{"x":-9695309.16,"y":4489444.58,"spatialReference":{"wkid":102100}},"attributes":{"FACILITY_NAME":"WESTERN KENTUCKY RESOURCES LLC - EQUALITY BARGE LOADER","STATE":"KY","COUNTY":"OHIO","LATITUDE":37.360278,"LONGITUDE":-87.094444,"INDICATOR_SCORE":50,"__OBJECTID":79,"INDUSTRY_SECTOR":null}},{"geometry":{"x":-9707988.45,"y":4481005.68,"spatialReference":{"wkid":102100}},"attributes":{"FACILITY_NAME":"KENAMERICAN RESOURCES INC","STATE":"KY","COUNTY":"MUHLENBERG","LATITUDE":37.299999,"LONGITUDE":-87.208344,"INDICATOR_SCORE":50,"__OBJECTID":80,"INDUSTRY_SECTOR":null}},{"geometry":{"x":-9692338.93,"y":4495248.46,"spatialReference":{"wkid":102100}},"attributes":{"FACILITY_NAME":"THE WESTERN KENTUCKY COAL CO - GENESIS MINE","STATE":"KY","COUNTY":"OHIO","LATITUDE":37.401707,"LONGITUDE":-87.067762,"INDICATOR_SCORE":50,"__OBJECTID":81,"INDUSTRY_SECTOR":null}},{"geometry":{"x":-9529287.94,"y":4439480.35,"spatialReference":{"wkid":102100}},"attributes":{"FACILITY_NAME":"SUMITOMO ELECTRIC WIRING SYSTEMS INC","STATE":"KY","COUNTY":"METCALFE","LATITUDE":37.00268,"LONGITUDE":-85.60305,"INDICATOR_SCORE":50,"__OBJECTID":82,"INDUSTRY_SECTOR":null}},{"geometry":{"x":-9411287.05,"y":4588330.84,"spatialReference":{"wkid":102100}},"attributes":{"FACILITY_NAME":"CERADYNE INC A 3M CO","STATE":"KY","COUNTY":"FAYETTE","LATITUDE":38.06301,"LONGITUDE":-84.54303,"INDICATOR_SCORE":50,"__OBJECTID":83,"INDUSTRY_SECTOR":null}},{"geometry":{"x":-9540497.81,"y":4601625.62,"spatialReference":{"wkid":102100}},"attributes":{"FACILITY_NAME":"GENERAL EQUIPMENT & MANUFACTURING CO INC","STATE":"KY","COUNTY":"JEFFERSON","LATITUDE":38.15698,"LONGITUDE":-85.70375,"INDICATOR_SCORE":50,"__OBJECTID":84,"INDUSTRY_SECTOR":null}},{"geometry":{"x":-9417958.43,"y":4718200,"spatialReference":{"wkid":102100}},"attributes":{"FACILITY_NAME":"RONAN ENGINEERING CO","STATE":"KY","COUNTY":"KENTON","LATITUDE":38.97576,"LONGITUDE":-84.60296,"INDICATOR_SCORE":50,"__OBJECTID":85,"INDUSTRY_SECTOR":null}},{"geometry":{"x":-9882646.5,"y":4460310.95,"spatialReference":{"wkid":102100}},"attributes":{"FACILITY_NAME":"US TVA SHAWNEE FOSSIL PLANT","STATE":"KY","COUNTY":"MCCRACKEN","LATITUDE":37.151972,"LONGITUDE":-88.777324,"INDICATOR_SCORE":50,"__OBJECTID":86,"INDUSTRY_SECTOR":null}},{"geometry":{"x":-9691550.01,"y":4550524.84,"spatialReference":{"wkid":102100}},"attributes":{"FACILITY_NAME":"OWENSBORO MUNICIPAL UTILITIES ELMER SMITH STATION","STATE":"KY","COUNTY":"DAVIESS","LATITUDE":37.79513,"LONGITUDE":-87.060675,"INDICATOR_SCORE":50,"__OBJECTID":87,"INDUSTRY_SECTOR":null}},{"geometry":{"x":-9416652.87,"y":4438935.48,"spatialReference":{"wkid":102100}},"attributes":{"FACILITY_NAME":"JOHN S COOPER POWER STATION","STATE":"KY","COUNTY":"PULASKI","LATITUDE":36.998771,"LONGITUDE":-84.591232,"INDICATOR_SCORE":50,"__OBJECTID":88,"INDUSTRY_SECTOR":null}},{"geometry":{"x":-9682591.57,"y":4475353.72,"spatialReference":{"wkid":102100}},"attributes":{"FACILITY_NAME":"US TVA PARADISE FOSSIL PLANT","STATE":"KY","COUNTY":"MUHLENBERG","LATITUDE":37.2596,"LONGITUDE":-86.9802,"INDICATOR_SCORE":50,"__OBJECTID":89,"INDUSTRY_SECTOR":null}},{"geometry":{"x":-9466052.9,"y":4685881.4,"spatialReference":{"wkid":102100}},"attributes":{"FACILITY_NAME":"KENTUCKY UTILITIES CO GHENT STATION","STATE":"KY","COUNTY":"CARROLL","LATITUDE":38.7497,"LONGITUDE":-85.035,"INDICATOR_SCORE":50,"__OBJECTID":90,"INDUSTRY_SECTOR":null}},{"geometry":{"x":-9563190.29,"y":4586505.68,"spatialReference":{"wkid":102100}},"attributes":{"FACILITY_NAME":"LOUISVILLE GAS & ELECTRIC CO - MILL CREEK STATION","STATE":"KY","COUNTY":"JEFFERSON","LATITUDE":38.0501,"LONGITUDE":-85.9076,"INDICATOR_SCORE":50,"__OBJECTID":91,"INDUSTRY_SECTOR":null}},{"geometry":{"x":-9445273.22,"y":4707993.22,"spatialReference":{"wkid":102100}},"attributes":{"FACILITY_NAME":"DUKE ENERGY KENTUCKY INC - EAST BEND GENERATING STATION","STATE":"KY","COUNTY":"BOONE","LATITUDE":38.904444,"LONGITUDE":-84.848333,"INDICATOR_SCORE":50,"__OBJECTID":92,"INDUSTRY_SECTOR":null}},{"geometry":{"x":-9740764.69,"y":4529548.45,"spatialReference":{"wkid":102100}},"attributes":{"FACILITY_NAME":"BIG RIVERS ELECTRIC CORP REID/GREEN/HMP&L STATION II","STATE":"KY","COUNTY":"HENDERSON","LATITUDE":37.646078,"LONGITUDE":-87.502778,"INDICATOR_SCORE":50,"__OBJECTID":93,"INDUSTRY_SECTOR":null}},{"geometry":{"x":-9430299.64,"y":4549656.11,"spatialReference":{"wkid":102100}},"attributes":{"FACILITY_NAME":"KENTUCKY UTILITIES CO - E W BROWN STATION","STATE":"KY","COUNTY":"MERCER","LATITUDE":37.788963,"LONGITUDE":-84.713823,"INDICATOR_SCORE":50,"__OBJECTID":94,"INDUSTRY_SECTOR":null}},{"geometry":{"x":-9507980.83,"y":4662364.06,"spatialReference":{"wkid":102100}},"attributes":{"FACILITY_NAME":"LOUISVILLE GAS & ELECTRIC CO - TRIMBLE COUNTY STATION","STATE":"KY","COUNTY":"TRIMBLE","LATITUDE":38.584751,"LONGITUDE":-85.411645,"INDICATOR_SCORE":50,"__OBJECTID":95,"INDUSTRY_SECTOR":null}},{"geometry":{"x":-9330522.09,"y":4678803.63,"spatialReference":{"wkid":102100}},"attributes":{"FACILITY_NAME":"SPURLOCK POWER STATION","STATE":"KY","COUNTY":"MASON","LATITUDE":38.700097,"LONGITUDE":-83.817506,"INDICATOR_SCORE":50,"__OBJECTID":96,"INDUSTRY_SECTOR":null}},{"geometry":{"x":-9693734.43,"y":4501985.59,"spatialReference":{"wkid":102100}},"attributes":{"FACILITY_NAME":"BIG RIVERS ELECTRIC CORP WILSON STATION","STATE":"KY","COUNTY":"OHIO","LATITUDE":37.449769,"LONGITUDE":-87.080298,"INDICATOR_SCORE":50,"__OBJECTID":97,"INDUSTRY_SECTOR":null}},{"geometry":{"x":-9383441.81,"y":4541916.93,"spatialReference":{"wkid":102100}},"attributes":{"FACILITY_NAME":"ENERSYS DELAWARE INC","STATE":"KY","COUNTY":"MADISON","LATITUDE":37.734001,"LONGITUDE":-84.292892,"INDICATOR_SCORE":50,"__OBJECTID":98,"INDUSTRY_SECTOR":null}},{"geometry":{"x":-9534528.86,"y":4604607.51,"spatialReference":{"wkid":102100}},"attributes":{"FACILITY_NAME":"GE APPLIANCES A HAIER CO - APPLIANCE PARK","STATE":"KY","COUNTY":"JEFFERSON","LATITUDE":38.17804,"LONGITUDE":-85.65013,"INDICATOR_SCORE":50,"__OBJECTID":99,"INDUSTRY_SECTOR":null}},{"geometry":{"x":-9440188.93,"y":4527410.56,"spatialReference":{"wkid":102100}},"attributes":{"FACILITY_NAME":"DENYO MANUFACTURING CORP","STATE":"KY","COUNTY":"BOYLE","LATITUDE":37.63087,"LONGITUDE":-84.80266,"INDICATOR_SCORE":50,"__OBJECTID":100,"INDUSTRY_SECTOR":null}},{"geometry":{"x":-9928152.46,"y":4379492.61,"spatialReference":{"wkid":102100}},"attributes":{"FACILITY_NAME":"TOKAI CARBON GE LLC","STATE":"KY","COUNTY":"FULTON","LATITUDE":36.571111,"LONGITUDE":-89.186111,"INDICATOR_SCORE":50,"__OBJECTID":101,"INDUSTRY_SECTOR":null}},{"geometry":{"x":-9462759.62,"y":4448564.1,"spatialReference":{"wkid":102100}},"attributes":{"FACILITY_NAME":"SUPERIOR BATTERY MANUFACTURING CO INC","STATE":"KY","COUNTY":"RUSSELL","LATITUDE":37.067819,"LONGITUDE":-85.005416,"INDICATOR_SCORE":50,"__OBJECTID":102,"INDUSTRY_SECTOR":null}},{"geometry":{"x":-9409099.62,"y":4590115.31,"spatialReference":{"wkid":102100}},"attributes":{"FACILITY_NAME":"SCHNEIDER ELECTRIC USA INC","STATE":"KY","COUNTY":"FAYETTE","LATITUDE":38.07563,"LONGITUDE":-84.52338,"INDICATOR_SCORE":50,"__OBJECTID":103,"INDUSTRY_SECTOR":null}},{"geometry":{"x":-9434357.79,"y":4585745.46,"spatialReference":{"wkid":102100}},"attributes":{"FACILITY_NAME":"LEDVANCE LLC","STATE":"KY","COUNTY":"WOODFORD","LATITUDE":38.044722,"LONGITUDE":-84.750278,"INDICATOR_SCORE":50,"__OBJECTID":104,"INDUSTRY_SECTOR":null}},{"geometry":{"x":-9379711.28,"y":4536368.2,"spatialReference":{"wkid":102100}},"attributes":{"FACILITY_NAME":"OKONITE CO INC","STATE":"KY","COUNTY":"MADISON","LATITUDE":37.69457,"LONGITUDE":-84.25938,"INDICATOR_SCORE":50,"__OBJECTID":105,"INDUSTRY_SECTOR":null}},{"geometry":{"x":-9594093.13,"y":4406190.3,"spatialReference":{"wkid":102100}},"attributes":{"FACILITY_NAME":"SUMITOMO ELECTRIC WIRING SYSTE MS INC","STATE":"KY","COUNTY":"ALLEN","LATITUDE":36.763482,"LONGITUDE":-86.185205,"INDICATOR_SCORE":50,"__OBJECTID":106,"INDUSTRY_SECTOR":null}},{"geometry":{"x":-9453365.82,"y":4588272.87,"spatialReference":{"wkid":102100}},"attributes":{"FACILITY_NAME":"GENERAL CABLE CORP","STATE":"KY","COUNTY":"ANDERSON","LATITUDE":38.0626,"LONGITUDE":-84.92103,"INDICATOR_SCORE":50,"__OBJECTID":107,"INDUSTRY_SECTOR":null}},{"geometry":{"x":-9675159.88,"y":4416700.29,"spatialReference":{"wkid":102100}},"attributes":{"FACILITY_NAME":"EMERSON ELECTRIC CO","STATE":"KY","COUNTY":"LOGAN","LATITUDE":36.83908,"LONGITUDE":-86.91344,"INDICATOR_SCORE":50,"__OBJECTID":108,"INDUSTRY_SECTOR":null}},{"geometry":{"x":-9546695.63,"y":4603617.28,"spatialReference":{"wkid":102100}},"attributes":{"FACILITY_NAME":"BAE SYSTEMS","STATE":"KY","COUNTY":"JEFFERSON","LATITUDE":38.171047,"LONGITUDE":-85.759426,"INDICATOR_SCORE":25,"__OBJECTID":109,"INDUSTRY_SECTOR":null}},{"geometry":{"x":-9735439.39,"y":4416679.42,"spatialReference":{"wkid":102100}},"attributes":{"FACILITY_NAME":"EMHART TEKNOLOGIES","STATE":"KY","COUNTY":"CHRISTIAN","LATITUDE":36.83893,"LONGITUDE":-87.45494,"INDICATOR_SCORE":25,"__OBJECTID":110,"INDUSTRY_SECTOR":null}},{"geometry":{"x":-9859425.92,"y":4445845.51,"spatialReference":{"wkid":102100}},"attributes":{"FACILITY_NAME":"WORTHINGTON INDUSTRIES PADUCAH","STATE":"KY","COUNTY":"MCCRACKEN","LATITUDE":37.04833,"LONGITUDE":-88.56873,"INDICATOR_SCORE":25,"__OBJECTID":111,"INDUSTRY_SECTOR":null}},{"geometry":{"x":-9414466.33,"y":4671021.8,"spatialReference":{"wkid":102100}},"attributes":{"FACILITY_NAME":"GOTEC PLUS SUN LLC","STATE":"KY","COUNTY":"GRANT","LATITUDE":38.64552,"LONGITUDE":-84.57159,"INDICATOR_SCORE":25,"__OBJECTID":112,"INDUSTRY_SECTOR":null}},{"geometry":{"x":-9780220.32,"y":4536731.87,"spatialReference":{"wkid":102100}},"attributes":{"FACILITY_NAME":"MORGANFIELD ADHESIVE PLANT","STATE":"KY","COUNTY":"UNION","LATITUDE":37.697155,"LONGITUDE":-87.857214,"INDICATOR_SCORE":25,"__OBJECTID":113,"INDUSTRY_SECTOR":null}},{"geometry":{"x":-9695283.11,"y":4546336.1,"spatialReference":{"wkid":102100}},"attributes":{"FACILITY_NAME":"MODERN WELDING CO OF OWENSBORO INC","STATE":"KY","COUNTY":"DAVIESS","LATITUDE":37.76539,"LONGITUDE":-87.09421,"INDICATOR_SCORE":25,"__OBJECTID":114,"INDUSTRY_SECTOR":null}},{"geometry":{"x":-9419607.96,"y":4717693.39,"spatialReference":{"wkid":102100}},"attributes":{"FACILITY_NAME":"MUBEA INC","STATE":"KY","COUNTY":"BOONE","LATITUDE":38.972222,"LONGITUDE":-84.617778,"INDICATOR_SCORE":25,"__OBJECTID":115,"INDUSTRY_SECTOR":null}},{"geometry":{"x":-9538863.64,"y":4600950.35,"spatialReference":{"wkid":102100}},"attributes":{"FACILITY_NAME":"CALDWELL TANKS INC","STATE":"KY","COUNTY":"JEFFERSON","LATITUDE":38.15221,"LONGITUDE":-85.68907,"INDICATOR_SCORE":25,"__OBJECTID":116,"INDUSTRY_SECTOR":null}},{"geometry":{"x":-9564385.08,"y":4462868,"spatialReference":{"wkid":102100}},"attributes":{"FACILITY_NAME":"KENTUCKY CHROME WORKS","STATE":"KY","COUNTY":"HART","LATITUDE":37.170278,"LONGITUDE":-85.918333,"INDICATOR_SCORE":25,"__OBJECTID":117,"INDUSTRY_SECTOR":null}},{"geometry":{"x":-9357732.8,"y":4426491.95,"spatialReference":{"wkid":102100}},"attributes":{"FACILITY_NAME":"KOWA KENTUCKY  INC","STATE":"KY","COUNTY":"KNOX","LATITUDE":36.909444,"LONGITUDE":-84.061944,"INDICATOR_SCORE":25,"__OBJECTID":118,"INDUSTRY_SECTOR":null}},{"geometry":{"x":-9861672.35,"y":4449519.94,"spatialReference":{"wkid":102100}},"attributes":{"FACILITY_NAME":"PRECISION MACHINE INC","STATE":"KY","COUNTY":"MCCRACKEN","LATITUDE":37.07467,"LONGITUDE":-88.58891,"INDICATOR_SCORE":25,"__OBJECTID":119,"INDUSTRY_SECTOR":null}},{"geometry":{"x":-9417992.94,"y":4717720.31,"spatialReference":{"wkid":102100}},"attributes":{"FACILITY_NAME":"THYSSENKRUPP ROTHE ERDE USA INC","STATE":"KY","COUNTY":"BOONE","LATITUDE":38.97241,"LONGITUDE":-84.60327,"INDICATOR_SCORE":25,"__OBJECTID":120,"INDUSTRY_SECTOR":null}},{"geometry":{"x":-9930845.84,"y":4377740.87,"spatialReference":{"wkid":102100}},"attributes":{"FACILITY_NAME":"INSTEEL WIRE PRODUCTS","STATE":"KY","COUNTY":"FULTON","LATITUDE":36.558472,"LONGITUDE":-89.210306,"INDICATOR_SCORE":25,"__OBJECTID":121,"INDUSTRY_SECTOR":null}},{"geometry":{"x":-9488450.05,"y":4519850.65,"spatialReference":{"wkid":102100}},"attributes":{"FACILITY_NAME":"PORTLAND FORGE","STATE":"KY","COUNTY":"MARION","LATITUDE":37.577067,"LONGITUDE":-85.236197,"INDICATOR_SCORE":25,"__OBJECTID":122,"INDUSTRY_SECTOR":null}},{"geometry":{"x":-9412195.42,"y":4620036.24,"spatialReference":{"wkid":102100}},"attributes":{"FACILITY_NAME":"AICHI FORGE USA INC","STATE":"KY","COUNTY":"SCOTT","LATITUDE":38.28691,"LONGITUDE":-84.55119,"INDICATOR_SCORE":25,"__OBJECTID":123,"INDUSTRY_SECTOR":null}},{"geometry":{"x":-9371002.75,"y":4581823.38,"spatialReference":{"wkid":102100}},"attributes":{"FACILITY_NAME":"BODYCOTE - WINCHESTER","STATE":"KY","COUNTY":"CLARK","LATITUDE":38.01697,"LONGITUDE":-84.18115,"INDICATOR_SCORE":25,"__OBJECTID":124,"INDUSTRY_SECTOR":null}},{"geometry":{"x":-9399797.77,"y":4581369.82,"spatialReference":{"wkid":102100}},"attributes":{"FACILITY_NAME":"CENTRAL KENTUCKY PROCESSING INC","STATE":"KY","COUNTY":"FAYETTE","LATITUDE":38.01376,"LONGITUDE":-84.43982,"INDICATOR_SCORE":25,"__OBJECTID":125,"INDUSTRY_SECTOR":null}},{"geometry":{"x":-9418043.03,"y":4717955.14,"spatialReference":{"wkid":102100}},"attributes":{"FACILITY_NAME":"THUSSENKRUPP ROTHE ERDE USA INC","STATE":"KY","COUNTY":"BOONE","LATITUDE":38.97405,"LONGITUDE":-84.60372,"INDICATOR_SCORE":25,"__OBJECTID":126,"INDUSTRY_SECTOR":null}},{"geometry":{"x":-9383660.89,"y":4521208,"spatialReference":{"wkid":102100}},"attributes":{"FACILITY_NAME":"STEMCO PRODUCTS INC","STATE":"KY","COUNTY":"MADISON","LATITUDE":37.58673,"LONGITUDE":-84.29486,"INDICATOR_SCORE":25,"__OBJECTID":127,"INDUSTRY_SECTOR":null}},{"geometry":{"x":-9616755.22,"y":4441111.36,"spatialReference":{"wkid":102100}},"attributes":{"FACILITY_NAME":"TRACE DIE CAST INC","STATE":"KY","COUNTY":"WARREN","LATITUDE":37.01438,"LONGITUDE":-86.388782,"INDICATOR_SCORE":25,"__OBJECTID":128,"INDUSTRY_SECTOR":null}},{"geometry":{"x":-9743181.66,"y":4526568.63,"spatialReference":{"wkid":102100}},"attributes":{"FACILITY_NAME":"PHOENIX FABRICATORS & ERECTORS INC","STATE":"KY","COUNTY":"WEBSTER","LATITUDE":37.62488,"LONGITUDE":-87.52449,"INDICATOR_SCORE":25,"__OBJECTID":129,"INDUSTRY_SECTOR":null}},{"geometry":{"x":-9400186.27,"y":4726058.57,"spatialReference":{"wkid":102100}},"attributes":{"FACILITY_NAME":"SEGEPO-FSM INC.","STATE":"KY","COUNTY":"CAMPBELL","LATITUDE":39.03062,"LONGITUDE":-84.44331,"INDICATOR_SCORE":25,"__OBJECTID":130,"INDUSTRY_SECTOR":null}},{"geometry":{"x":-9439930,"y":4604108.35,"spatialReference":{"wkid":102100}},"attributes":{"FACILITY_NAME":"NASHVILLE WIRE PRODUCTS","STATE":"KY","COUNTY":"FRANKLIN","LATITUDE":38.174515,"LONGITUDE":-84.800334,"INDICATOR_SCORE":25,"__OBJECTID":131,"INDUSTRY_SECTOR":null}},{"geometry":{"x":-9449174.86,"y":4584437.32,"spatialReference":{"wkid":102100}},"attributes":{"FACILITY_NAME":"YKK (USA) INC SNAP & BUTTON PRODUCTS","STATE":"KY","COUNTY":"ANDERSON","LATITUDE":38.035467,"LONGITUDE":-84.883382,"INDICATOR_SCORE":25,"__OBJECTID":132,"INDUSTRY_SECTOR":null}},{"geometry":{"x":-9491317.97,"y":4607856.58,"spatialReference":{"wkid":102100}},"attributes":{"FACILITY_NAME":"STANLEY BLACK & DECKER","STATE":"KY","COUNTY":"SHELBY","LATITUDE":38.20098,"LONGITUDE":-85.26196,"INDICATOR_SCORE":25,"__OBJECTID":133,"INDUSTRY_SECTOR":null}},{"geometry":{"x":-9717634.95,"y":4472496.22,"spatialReference":{"wkid":102100}},"attributes":{"FACILITY_NAME":"ENSIGN-BICKFORD AEROSPACE & DEFENSE CO","STATE":"KY","COUNTY":"MUHLENBERG","LATITUDE":37.239167,"LONGITUDE":-87.295,"INDICATOR_SCORE":25,"__OBJECTID":134,"INDUSTRY_SECTOR":null}},{"geometry":{"x":-9371315.56,"y":4581263.85,"spatialReference":{"wkid":102100}},"attributes":{"FACILITY_NAME":"CONTECH ENGINEERED SOLUTIONS LLC","STATE":"KY","COUNTY":"CLARK","LATITUDE":38.01301,"LONGITUDE":-84.18396,"INDICATOR_SCORE":25,"__OBJECTID":135,"INDUSTRY_SECTOR":null}},{"geometry":{"x":-9629965.28,"y":4428611.95,"spatialReference":{"wkid":102100}},"attributes":{"FACILITY_NAME":"STUPP BRIDGE CO","STATE":"KY","COUNTY":"WARREN","LATITUDE":36.92467,"LONGITUDE":-86.50745,"INDICATOR_SCORE":25,"__OBJECTID":136,"INDUSTRY_SECTOR":null}},{"geometry":{"x":-9421148.84,"y":4718772.78,"spatialReference":{"wkid":102100}},"attributes":{"FACILITY_NAME":"GREIF PACKAGING LLC","STATE":"KY","COUNTY":"BOONE","LATITUDE":38.97976,"LONGITUDE":-84.63162,"INDICATOR_SCORE":25,"__OBJECTID":137,"INDUSTRY_SECTOR":null}},{"geometry":{"x":-9548242.31,"y":4613087.83,"spatialReference":{"wkid":102100}},"attributes":{"FACILITY_NAME":"TRI-STATE PLATING INC","STATE":"KY","COUNTY":"JEFFERSON","LATITUDE":38.2379,"LONGITUDE":-85.77332,"INDICATOR_SCORE":25,"__OBJECTID":138,"INDUSTRY_SECTOR":null}},{"geometry":{"x":-9411337.14,"y":4607495.37,"spatialReference":{"wkid":102100}},"attributes":{"FACILITY_NAME":"INTERNATIONAL CRANKSHAFT INC","STATE":"KY","COUNTY":"SCOTT","LATITUDE":38.19843,"LONGITUDE":-84.54348,"INDICATOR_SCORE":25,"__OBJECTID":139,"INDUSTRY_SECTOR":null}},{"geometry":{"x":-9733570.33,"y":4415417.92,"spatialReference":{"wkid":102100}},"attributes":{"FACILITY_NAME":"MSSC-US","STATE":"KY","COUNTY":"CHRISTIAN","LATITUDE":36.82986,"LONGITUDE":-87.43815,"INDICATOR_SCORE":25,"__OBJECTID":140,"INDUSTRY_SECTOR":null}},{"geometry":{"x":-9322698.11,"y":4670076.73,"spatialReference":{"wkid":102100}},"attributes":{"FACILITY_NAME":"WALD LLC","STATE":"KY","COUNTY":"MASON","LATITUDE":38.638889,"LONGITUDE":-83.747222,"INDICATOR_SCORE":25,"__OBJECTID":141,"INDUSTRY_SECTOR":null}},{"geometry":{"x":-9670055.89,"y":4493014.03,"spatialReference":{"wkid":102100}},"attributes":{"FACILITY_NAME":"NEO INDUSTRIES (KENTUCKY) INC","STATE":"KY","COUNTY":"OHIO","LATITUDE":37.38576,"LONGITUDE":-86.86759,"INDICATOR_SCORE":25,"__OBJECTID":142,"INDUSTRY_SECTOR":null}},{"geometry":{"x":-9701995.67,"y":4549414.82,"spatialReference":{"wkid":102100}},"attributes":{"FACILITY_NAME":"HAUSNER HARD-CHROME OF KENTUCKY","STATE":"KY","COUNTY":"DAVIESS","LATITUDE":37.78725,"LONGITUDE":-87.15451,"INDICATOR_SCORE":25,"__OBJECTID":143,"INDUSTRY_SECTOR":null}},{"geometry":{"x":-9701812,"y":4549421.86,"spatialReference":{"wkid":102100}},"attributes":{"FACILITY_NAME":"HENDRICK SCREEN CO","STATE":"KY","COUNTY":"DAVIESS","LATITUDE":37.7873,"LONGITUDE":-87.15286,"INDICATOR_SCORE":25,"__OBJECTID":144,"INDUSTRY_SECTOR":null}},{"geometry":{"x":-9414313.83,"y":4559852.05,"spatialReference":{"wkid":102100}},"attributes":{"FACILITY_NAME":"SARGENT & GREENLEAF","STATE":"KY","COUNTY":"JESSAMINE","LATITUDE":37.86131,"LONGITUDE":-84.57022,"INDICATOR_SCORE":25,"__OBJECTID":145,"INDUSTRY_SECTOR":null}},{"geometry":{"x":-9629748.21,"y":4430404.24,"spatialReference":{"wkid":102100}},"attributes":{"FACILITY_NAME":"KOBE ALUMINUM AUTOMOTIVE PRODUCTS LLC","STATE":"KY","COUNTY":"WARREN","LATITUDE":36.93754,"LONGITUDE":-86.5055,"INDICATOR_SCORE":25,"__OBJECTID":146,"INDUSTRY_SECTOR":null}},{"geometry":{"x":-9659779.76,"y":4570090.75,"spatialReference":{"wkid":102100}},"attributes":{"FACILITY_NAME":"PRECOAT METALS","STATE":"KY","COUNTY":"HANCOCK","LATITUDE":37.933889,"LONGITUDE":-86.775278,"INDICATOR_SCORE":25,"__OBJECTID":147,"INDUSTRY_SECTOR":null}},{"geometry":{"x":-9546279.74,"y":4604249.24,"spatialReference":{"wkid":102100}},"attributes":{"FACILITY_NAME":"O'NEAL MANUFACTURING SERVICES","STATE":"KY","COUNTY":"JEFFERSON","LATITUDE":38.17551,"LONGITUDE":-85.75569,"INDICATOR_SCORE":25,"__OBJECTID":148,"INDUSTRY_SECTOR":null}},{"geometry":{"x":-9560313.35,"y":4597347.41,"spatialReference":{"wkid":102100}},"attributes":{"FACILITY_NAME":"NHK SPRING PRECISION OF AMERICA","STATE":"KY","COUNTY":"JEFFERSON","LATITUDE":38.126754,"LONGITUDE":-85.881756,"INDICATOR_SCORE":25,"__OBJECTID":149,"INDUSTRY_SECTOR":null}},{"geometry":{"x":-9518561.19,"y":4616216.23,"spatialReference":{"wkid":102100}},"attributes":{"FACILITY_NAME":"CMC REBAR","STATE":"KY","COUNTY":"JEFFERSON","LATITUDE":38.25997,"LONGITUDE":-85.50669,"INDICATOR_SCORE":25,"__OBJECTID":150,"INDUSTRY_SECTOR":null}},{"geometry":{"x":-9421122.13,"y":4728024.89,"spatialReference":{"wkid":102100}},"attributes":{"FACILITY_NAME":"GE ALSTOM POWER","STATE":"KY","COUNTY":"BOONE","LATITUDE":39.04434,"LONGITUDE":-84.63138,"INDICATOR_SCORE":25,"__OBJECTID":151,"INDUSTRY_SECTOR":null}},{"geometry":{"x":-9608244.96,"y":4444183.09,"spatialReference":{"wkid":102100}},"attributes":{"FACILITY_NAME":"CONSTELLIUM BOWLING GREEN","STATE":"KY","COUNTY":"WARREN","LATITUDE":37.03641,"LONGITUDE":-86.312333,"INDICATOR_SCORE":25,"__OBJECTID":152,"INDUSTRY_SECTOR":null}},{"geometry":{"x":-9378357.85,"y":4611338.5,"spatialReference":{"wkid":102100}},"attributes":{"FACILITY_NAME":"ITW COMMERCIAL CONSTRUCTION NA","STATE":"KY","COUNTY":"BOURBON","LATITUDE":38.225556,"LONGITUDE":-84.247222,"INDICATOR_SCORE":25,"__OBJECTID":153,"INDUSTRY_SECTOR":null}},{"geometry":{"x":-9685109.62,"y":4542044.87,"spatialReference":{"wkid":102100}},"attributes":{"FACILITY_NAME":"HINES PRECISION INC","STATE":"KY","COUNTY":"DAVIESS","LATITUDE":37.73491,"LONGITUDE":-87.00282,"INDICATOR_SCORE":25,"__OBJECTID":154,"INDUSTRY_SECTOR":null}},{"geometry":{"x":-9546738.38,"y":4602906.91,"spatialReference":{"wkid":102100}},"attributes":{"FACILITY_NAME":"AZZ GALVANIZING SERVICES-LOUISVILLE","STATE":"KY","COUNTY":"JEFFERSON","LATITUDE":38.16603,"LONGITUDE":-85.75981,"INDICATOR_SCORE":25,"__OBJECTID":155,"INDUSTRY_SECTOR":null}},{"geometry":{"x":-9566147.71,"y":4437558.17,"spatialReference":{"wkid":102100}},"attributes":{"FACILITY_NAME":"BLUEGRASS DAIRY & FOOD INC","STATE":"KY","COUNTY":"BARREN","LATITUDE":36.988889,"LONGITUDE":-85.934167,"INDICATOR_SCORE":25,"__OBJECTID":156,"INDUSTRY_SECTOR":null}},{"geometry":{"x":-9648242.61,"y":4421761.43,"spatialReference":{"wkid":102100}},"attributes":{"FACILITY_NAME":"CHAMPION PETFOODS USA INC","STATE":"KY","COUNTY":"LOGAN","LATITUDE":36.875458,"LONGITUDE":-86.671638,"INDICATOR_SCORE":25,"__OBJECTID":157,"INDUSTRY_SECTOR":null}},{"geometry":{"x":-9377521.18,"y":4582890.67,"spatialReference":{"wkid":102100}},"attributes":{"FACILITY_NAME":"CARGILL FEED & NUTRITION WINCHESTER","STATE":"KY","COUNTY":"CLARK","LATITUDE":38.024523,"LONGITUDE":-84.239706,"INDICATOR_SCORE":25,"__OBJECTID":158,"INDUSTRY_SECTOR":null}},{"geometry":{"x":-9829312.89,"y":4385909.23,"spatialReference":{"wkid":102100}},"attributes":{"FACILITY_NAME":"SAPUTO DAIRY FOODS USA LLC","STATE":"KY","COUNTY":"CALLOWAY","LATITUDE":36.61739,"LONGITUDE":-88.29822,"INDICATOR_SCORE":25,"__OBJECTID":159,"INDUSTRY_SECTOR":null}},{"geometry":{"x":-9868820.4,"y":4415479.67,"spatialReference":{"wkid":102100}},"attributes":{"FACILITY_NAME":"PILGRIMS PRIDE CORP MAYFIELD KY FACILITY","STATE":"KY","COUNTY":"GRAVES","LATITUDE":36.830304,"LONGITUDE":-88.653122,"INDICATOR_SCORE":25,"__OBJECTID":160,"INDUSTRY_SECTOR":null}},{"geometry":{"x":-9417274.7,"y":4451259.81,"spatialReference":{"wkid":102100}},"attributes":{"FACILITY_NAME":"PRAIRIE FARMS DAIRY","STATE":"KY","COUNTY":"PULASKI","LATITUDE":37.087139,"LONGITUDE":-84.596818,"INDICATOR_SCORE":25,"__OBJECTID":161,"INDUSTRY_SECTOR":null}},{"geometry":{"x":-9480052.88,"y":4397477.29,"spatialReference":{"wkid":102100}},"attributes":{"FACILITY_NAME":"COBB-VANTRESS INC - FEED MILL","STATE":"KY","COUNTY":"CLINTON","LATITUDE":36.700753,"LONGITUDE":-85.160764,"INDICATOR_SCORE":25,"__OBJECTID":162,"INDUSTRY_SECTOR":null}},{"geometry":{"x":-9370843.79,"y":4581191.79,"spatialReference":{"wkid":102100}},"attributes":{"FACILITY_NAME":"WINCHESTER FARMS DAIRY","STATE":"KY","COUNTY":"CLARK","LATITUDE":38.0125,"LONGITUDE":-84.179722,"INDICATOR_SCORE":25,"__OBJECTID":163,"INDUSTRY_SECTOR":null}},{"geometry":{"x":-9787167.33,"y":4454227,"spatialReference":{"wkid":102100}},"attributes":{"FACILITY_NAME":"TREEHOUSE FOODS","STATE":"KY","COUNTY":"CALDWELL","LATITUDE":37.108399,"LONGITUDE":-87.91962,"INDICATOR_SCORE":25,"__OBJECTID":164,"INDUSTRY_SECTOR":null}},{"geometry":{"x":-9636321.63,"y":4394379.75,"spatialReference":{"wkid":102100}},"attributes":{"FACILITY_NAME":"KEYSTONE FOODS","STATE":"KY","COUNTY":"SIMPSON","LATITUDE":36.67844,"LONGITUDE":-86.56455,"INDICATOR_SCORE":25,"__OBJECTID":165,"INDUSTRY_SECTOR":null}},{"geometry":{"x":-9325461.5,"y":4597391.42,"spatialReference":{"wkid":102100}},"attributes":{"FACILITY_NAME":"CTI FOODS","STATE":"KY","COUNTY":"BATH","LATITUDE":38.127065,"LONGITUDE":-83.772046,"INDICATOR_SCORE":25,"__OBJECTID":166,"INDUSTRY_SECTOR":null}},{"geometry":{"x":-9700256.75,"y":4506108.62,"spatialReference":{"wkid":102100}},"attributes":{"FACILITY_NAME":"PERDUE FARMS INC LIVERMORE FEEDMILL","STATE":"KY","COUNTY":"MCLEAN","LATITUDE":37.479167,"LONGITUDE":-87.138889,"INDICATOR_SCORE":25,"__OBJECTID":167,"INDUSTRY_SECTOR":null}},{"geometry":{"x":-9564265.63,"y":4461328.89,"spatialReference":{"wkid":102100}},"attributes":{"FACILITY_NAME":"T MARZETTI CO","STATE":"KY","COUNTY":"HART","LATITUDE":37.15926,"LONGITUDE":-85.91726,"INDICATOR_SCORE":25,"__OBJECTID":168,"INDUSTRY_SECTOR":null}},{"geometry":{"x":-9549525.15,"y":4610013.09,"spatialReference":{"wkid":102100}},"attributes":{"FACILITY_NAME":"AARHUSKARLSHAMN AAK","STATE":"KY","COUNTY":"JEFFERSON","LATITUDE":38.216202,"LONGITUDE":-85.784844,"INDICATOR_SCORE":25,"__OBJECTID":169,"INDUSTRY_SECTOR":null}},{"geometry":{"x":-9420853.85,"y":4716553.42,"spatialReference":{"wkid":102100}},"attributes":{"FACILITY_NAME":"GIVAUDAN FLAVORS CORP","STATE":"KY","COUNTY":"BOONE","LATITUDE":38.96426,"LONGITUDE":-84.62897,"INDICATOR_SCORE":25,"__OBJECTID":170,"INDUSTRY_SECTOR":null}},{"geometry":{"x":-9671004.44,"y":4425486.54,"spatialReference":{"wkid":102100}},"attributes":{"FACILITY_NAME":"DARLING INGREDIENTS INC","STATE":"KY","COUNTY":"LOGAN","LATITUDE":36.902222,"LONGITUDE":-86.876111,"INDICATOR_SCORE":25,"__OBJECTID":171,"INDUSTRY_SECTOR":null}},{"geometry":{"x":-9696251.59,"y":4547747.18,"spatialReference":{"wkid":102100}},"attributes":{"FACILITY_NAME":"OWENSBORO GRAIN CO LLC","STATE":"KY","COUNTY":"DAVIESS","LATITUDE":37.77541,"LONGITUDE":-87.10291,"INDICATOR_SCORE":25,"__OBJECTID":172,"INDUSTRY_SECTOR":null}},{"geometry":{"x":-9321802.88,"y":4642780.01,"spatialReference":{"wkid":102100}},"attributes":{"FACILITY_NAME":"RIDLEY BLOCK OPERATIONS","STATE":"KY","COUNTY":"FLEMING","LATITUDE":38.4471,"LONGITUDE":-83.73918,"INDICATOR_SCORE":25,"__OBJECTID":173,"INDUSTRY_SECTOR":null}},{"geometry":{"x":-9396168.08,"y":4683349.69,"spatialReference":{"wkid":102100}},"attributes":{"FACILITY_NAME":"DARLING INGREDIENTS INC","STATE":"KY","COUNTY":"PENDLETON","LATITUDE":38.731961,"LONGITUDE":-84.407214,"INDICATOR_SCORE":25,"__OBJECTID":174,"INDUSTRY_SECTOR":null}},{"geometry":{"x":-9482039.6,"y":4405710.36,"spatialReference":{"wkid":102100}},"attributes":{"FACILITY_NAME":"KEYSTONE FOODS","STATE":"KY","COUNTY":"CLINTON","LATITUDE":36.760028,"LONGITUDE":-85.178611,"INDICATOR_SCORE":25,"__OBJECTID":175,"INDUSTRY_SECTOR":null}},{"geometry":{"x":-9543079.75,"y":4615653.42,"spatialReference":{"wkid":102100}},"attributes":{"FACILITY_NAME":"SWIFT & CO","STATE":"KY","COUNTY":"JEFFERSON","LATITUDE":38.256,"LONGITUDE":-85.726944,"INDICATOR_SCORE":25,"__OBJECTID":176,"INDUSTRY_SECTOR":null}},{"geometry":{"x":-9661789.63,"y":4487729.07,"spatialReference":{"wkid":102100}},"attributes":{"FACILITY_NAME":"PERDUE CROMWELL PROCESSING PLANT","STATE":"KY","COUNTY":"OHIO","LATITUDE":37.348028,"LONGITUDE":-86.793333,"INDICATOR_SCORE":25,"__OBJECTID":177,"INDUSTRY_SECTOR":null}},{"geometry":{"x":-9562186.19,"y":4598522.87,"spatialReference":{"wkid":102100}},"attributes":{"FACILITY_NAME":"BIORIGIN/PTX FOOD CORP","STATE":"KY","COUNTY":"JEFFERSON","LATITUDE":38.13506,"LONGITUDE":-85.89858,"INDICATOR_SCORE":25,"__OBJECTID":178,"INDUSTRY_SECTOR":null}},{"geometry":{"x":-9487544.91,"y":4535840.79,"spatialReference":{"wkid":102100}},"attributes":{"FACILITY_NAME":"ALLTECH INC","STATE":"KY","COUNTY":"WASHINGTON","LATITUDE":37.690821,"LONGITUDE":-85.228066,"INDICATOR_SCORE":25,"__OBJECTID":179,"INDUSTRY_SECTOR":null}},{"geometry":{"x":-9551584.12,"y":4608604.55,"spatialReference":{"wkid":102100}},"attributes":{"FACILITY_NAME":"FERRARA CANDY CO","STATE":"KY","COUNTY":"JEFFERSON","LATITUDE":38.20626,"LONGITUDE":-85.80334,"INDICATOR_SCORE":25,"__OBJECTID":180,"INDUSTRY_SECTOR":null}},{"geometry":{"x":-9412586.15,"y":4569937.05,"spatialReference":{"wkid":102100}},"attributes":{"FACILITY_NAME":"ALLTECH INC","STATE":"KY","COUNTY":"JESSAMINE","LATITUDE":37.9328,"LONGITUDE":-84.5547,"INDICATOR_SCORE":25,"__OBJECTID":181,"INDUSTRY_SECTOR":null}},{"geometry":{"x":-9743596.44,"y":4527105.97,"spatialReference":{"wkid":102100}},"attributes":{"FACILITY_NAME":"TYSON CHICKEN INC FEED MILL","STATE":"KY","COUNTY":"WEBSTER","LATITUDE":37.628703,"LONGITUDE":-87.528216,"INDICATOR_SCORE":25,"__OBJECTID":182,"INDUSTRY_SECTOR":null}},{"geometry":{"x":-9742030.62,"y":4531031.78,"spatialReference":{"wkid":102100}},"attributes":{"FACILITY_NAME":"TYSON CHICKEN INC PROCESSING & RENDERING","STATE":"KY","COUNTY":"HENDERSON","LATITUDE":37.656628,"LONGITUDE":-87.51415,"INDICATOR_SCORE":25,"__OBJECTID":183,"INDUSTRY_SECTOR":null}},{"geometry":{"x":-9869535.29,"y":4400744.48,"spatialReference":{"wkid":102100}},"attributes":{"FACILITY_NAME":"PILGRIM'S PRIDE CORP MAYFIELD KY FEED MILL","STATE":"KY","COUNTY":"GRAVES","LATITUDE":36.724281,"LONGITUDE":-88.659544,"INDICATOR_SCORE":25,"__OBJECTID":184,"INDUSTRY_SECTOR":null}},{"geometry":{"x":-9362693.64,"y":4458835.61,"spatialReference":{"wkid":102100}},"attributes":{"FACILITY_NAME":"BORDEN DAIRY","STATE":"KY","COUNTY":"LAUREL","LATITUDE":37.141408,"LONGITUDE":-84.106508,"INDICATOR_SCORE":25,"__OBJECTID":185,"INDUSTRY_SECTOR":null}},{"geometry":{"x":-9231775.24,"y":4628784.62,"spatialReference":{"wkid":102100}},"attributes":{"FACILITY_NAME":"THE SMITHFIELD PACKAGED MEATS CORP - GRAYSON","STATE":"KY","COUNTY":"CARTER","LATITUDE":38.348569,"LONGITUDE":-82.930448,"INDICATOR_SCORE":25,"__OBJECTID":186,"INDUSTRY_SECTOR":null}},{"geometry":{"x":-9339649.62,"y":4592513.94,"spatialReference":{"wkid":102100}},"attributes":{"FACILITY_NAME":"CABINETWORKS GROUP MT STERLING","STATE":"KY","COUNTY":"MONTGOMERY","LATITUDE":38.09259,"LONGITUDE":-83.8995,"INDICATOR_SCORE":25,"__OBJECTID":187,"INDUSTRY_SECTOR":null}},{"geometry":{"x":-9653997.27,"y":4527522.59,"spatialReference":{"wkid":102100}},"attributes":{"FACILITY_NAME":"NOF - FORDSVILLE","STATE":"KY","COUNTY":"OHIO","LATITUDE":37.631667,"LONGITUDE":-86.723333,"INDICATOR_SCORE":25,"__OBJECTID":188,"INDUSTRY_SECTOR":null}},{"geometry":{"x":-9561531.63,"y":4543085.14,"spatialReference":{"wkid":102100}},"attributes":{"FACILITY_NAME":"MOUSER CUSTOM CABINETRY","STATE":"KY","COUNTY":"HARDIN","LATITUDE":37.7423,"LONGITUDE":-85.8927,"INDICATOR_SCORE":25,"__OBJECTID":189,"INDUSTRY_SECTOR":null}},{"geometry":{"x":-9611081.05,"y":4444217.95,"spatialReference":{"wkid":102100}},"attributes":{"FACILITY_NAME":"PAN OSTON CO","STATE":"KY","COUNTY":"WARREN","LATITUDE":37.03666,"LONGITUDE":-86.33781,"INDICATOR_SCORE":25,"__OBJECTID":190,"INDUSTRY_SECTOR":null}},{"geometry":{"x":-9488302.33,"y":4640628.28,"spatialReference":{"wkid":102100}},"attributes":{"FACILITY_NAME":"SAFETY-KLEEN SYSTEMS INC","STATE":"KY","COUNTY":"HENRY","LATITUDE":38.43196,"LONGITUDE":-85.23487,"INDICATOR_SCORE":25,"__OBJECTID":191,"INDUSTRY_SECTOR":null}},{"geometry":{"x":-9545830.01,"y":4602295.27,"spatialReference":{"wkid":102100}},"attributes":{"FACILITY_NAME":"SAFETY-KLEEN SYSTEMS LOUISVILLE (LOU)","STATE":"KY","COUNTY":"JEFFERSON","LATITUDE":38.16171,"LONGITUDE":-85.75165,"INDICATOR_SCORE":25,"__OBJECTID":192,"INDUSTRY_SECTOR":null}},{"geometry":{"x":-9392411.72,"y":4573954.59,"spatialReference":{"wkid":102100}},"attributes":{"FACILITY_NAME":"SAFETY-KLEEN SYSTEMS LEXINGTON (LEK)","STATE":"KY","COUNTY":"FAYETTE","LATITUDE":37.96126,"LONGITUDE":-84.37347,"INDICATOR_SCORE":25,"__OBJECTID":193,"INDUSTRY_SECTOR":null}},{"geometry":{"x":-9419799.65,"y":4715788.92,"spatialReference":{"wkid":102100}},"attributes":{"FACILITY_NAME":"WELDING ALLOYS USA INC","STATE":"KY","COUNTY":"BOONE","LATITUDE":38.95892,"LONGITUDE":-84.6195,"INDICATOR_SCORE":25,"__OBJECTID":194,"INDUSTRY_SECTOR":null}},{"geometry":{"x":-9628537.05,"y":4429348.61,"spatialReference":{"wkid":102100}},"attributes":{"FACILITY_NAME":"STOODY CO","STATE":"KY","COUNTY":"WARREN","LATITUDE":36.92996,"LONGITUDE":-86.49462,"INDICATOR_SCORE":25,"__OBJECTID":195,"INDUSTRY_SECTOR":null}},{"geometry":{"x":-9384220.83,"y":4523247.95,"spatialReference":{"wkid":102100}},"attributes":{"FACILITY_NAME":"HYSTER YALE GROUP INC","STATE":"KY","COUNTY":"MADISON","LATITUDE":37.60125,"LONGITUDE":-84.29989,"INDICATOR_SCORE":25,"__OBJECTID":196,"INDUSTRY_SECTOR":null}},{"geometry":{"x":-9567136.67,"y":4440275.05,"spatialReference":{"wkid":102100}},"attributes":{"FACILITY_NAME":"NEMAK; GLASGOW PLANT #2","STATE":"KY","COUNTY":"BARREN","LATITUDE":37.008381,"LONGITUDE":-85.943051,"INDICATOR_SCORE":25,"__OBJECTID":197,"INDUSTRY_SECTOR":null}},{"geometry":{"x":-9409481.45,"y":4723890.63,"spatialReference":{"wkid":102100}},"attributes":{"FACILITY_NAME":"ESCO CORP","STATE":"KY","COUNTY":"KENTON","LATITUDE":39.01549,"LONGITUDE":-84.52681,"INDICATOR_SCORE":25,"__OBJECTID":198,"INDUSTRY_SECTOR":null}},{"geometry":{"x":-9407889.13,"y":4589998.22,"spatialReference":{"wkid":102100}},"attributes":{"FACILITY_NAME":"TRANE TECHNOLOGIES","STATE":"KY","COUNTY":"FAYETTE","LATITUDE":38.074802,"LONGITUDE":-84.512506,"INDICATOR_SCORE":25,"__OBJECTID":199,"INDUSTRY_SECTOR":null}},{"geometry":{"x":-9420689.09,"y":4727432.95,"spatialReference":{"wkid":102100}},"attributes":{"FACILITY_NAME":"OBARA CORP USA","STATE":"KY","COUNTY":"BOONE","LATITUDE":39.04021,"LONGITUDE":-84.62749,"INDICATOR_SCORE":25,"__OBJECTID":200,"INDUSTRY_SECTOR":null}},{"geometry":{"x":-9442041.29,"y":4526276.29,"spatialReference":{"wkid":102100}},"attributes":{"FACILITY_NAME":"ITW FEG LLC HOBART DANVILLE DIV","STATE":"KY","COUNTY":"BOYLE","LATITUDE":37.6228,"LONGITUDE":-84.8193,"INDICATOR_SCORE":25,"__OBJECTID":201,"INDUSTRY_SECTOR":null}},{"geometry":{"x":-9605703.65,"y":4511377.3,"spatialReference":{"wkid":102100}},"attributes":{"FACILITY_NAME":"MTD CONSUMER GROUP INC - LEITCHFIELD FACILITY","STATE":"KY","COUNTY":"GRAYSON","LATITUDE":37.516717,"LONGITUDE":-86.289504,"INDICATOR_SCORE":25,"__OBJECTID":202,"INDUSTRY_SECTOR":null}},{"geometry":{"x":-9419793.42,"y":4718687.86,"spatialReference":{"wkid":102100}},"attributes":{"FACILITY_NAME":"M-I LLC SWECO DIV","STATE":"KY","COUNTY":"BOONE","LATITUDE":38.979167,"LONGITUDE":-84.619444,"INDICATOR_SCORE":25,"__OBJECTID":203,"INDUSTRY_SECTOR":null}},{"geometry":{"x":-9560774.65,"y":4602789.39,"spatialReference":{"wkid":102100}},"attributes":{"FACILITY_NAME":"MISA METAL FABRICATING INC","STATE":"KY","COUNTY":"JEFFERSON","LATITUDE":38.1652,"LONGITUDE":-85.8859,"INDICATOR_SCORE":25,"__OBJECTID":204,"INDUSTRY_SECTOR":null}},{"geometry":{"x":-9416117.2,"y":4563680.91,"spatialReference":{"wkid":102100}},"attributes":{"FACILITY_NAME":"DONALDSON CO INC","STATE":"KY","COUNTY":"JESSAMINE","LATITUDE":37.88846,"LONGITUDE":-84.58642,"INDICATOR_SCORE":25,"__OBJECTID":205,"INDUSTRY_SECTOR":null}},{"geometry":{"x":-9868410.85,"y":4406771.71,"spatialReference":{"wkid":102100}},"attributes":{"FACILITY_NAME":"ATLAS EQUIPMENT SERVICES INC","STATE":"KY","COUNTY":"GRAVES","LATITUDE":36.767666,"LONGITUDE":-88.649443,"INDICATOR_SCORE":25,"__OBJECTID":206,"INDUSTRY_SECTOR":null}},{"geometry":{"x":-9548024.12,"y":4612322.53,"spatialReference":{"wkid":102100}},"attributes":{"FACILITY_NAME":"VOGT ICE LLC","STATE":"KY","COUNTY":"JEFFERSON","LATITUDE":38.2325,"LONGITUDE":-85.77136,"INDICATOR_SCORE":25,"__OBJECTID":207,"INDUSTRY_SECTOR":null}},{"geometry":{"x":-9499325.07,"y":4487227.21,"spatialReference":{"wkid":102100}},"attributes":{"FACILITY_NAME":"INGERSOLL RAND CAMPBELLSVILLE OPERATIONS","STATE":"KY","COUNTY":"TAYLOR","LATITUDE":37.344444,"LONGITUDE":-85.333889,"INDICATOR_SCORE":25,"__OBJECTID":208,"INDUSTRY_SECTOR":null}},{"geometry":{"x":-9343787.03,"y":4429160.75,"spatialReference":{"wkid":102100}},"attributes":{"FACILITY_NAME":"JACKSON WWS INC","STATE":"KY","COUNTY":"KNOX","LATITUDE":36.928611,"LONGITUDE":-83.936667,"INDICATOR_SCORE":25,"__OBJECTID":209,"INDUSTRY_SECTOR":null}},{"geometry":{"x":-9786327.98,"y":4454580.3,"spatialReference":{"wkid":102100}},"attributes":{"FACILITY_NAME":"HYDRO GEAR","STATE":"KY","COUNTY":"CALDWELL","LATITUDE":37.11093,"LONGITUDE":-87.91208,"INDICATOR_SCORE":25,"__OBJECTID":210,"INDUSTRY_SECTOR":null}},{"geometry":{"x":-9829109.06,"y":4384961.45,"spatialReference":{"wkid":102100}},"attributes":{"FACILITY_NAME":"BRIGGS & STRATTON CORP","STATE":"KY","COUNTY":"CALLOWAY","LATITUDE":36.610556,"LONGITUDE":-88.296389,"INDICATOR_SCORE":25,"__OBJECTID":211,"INDUSTRY_SECTOR":null}},{"geometry":{"x":-9440944.79,"y":4602661.96,"spatialReference":{"wkid":102100}},"attributes":{"FACILITY_NAME":"GREENHECK FAN CORP KENTUCKY","STATE":"KY","COUNTY":"FRANKLIN","LATITUDE":38.1643,"LONGITUDE":-84.80945,"INDICATOR_SCORE":25,"__OBJECTID":212,"INDUSTRY_SECTOR":null}},{"geometry":{"x":-9399585.14,"y":4581140.93,"spatialReference":{"wkid":102100}},"attributes":{"FACILITY_NAME":"LINK-BELT CRANES LP LLLP A DELAWARE LTD LIABILITY L","STATE":"KY","COUNTY":"FAYETTE","LATITUDE":38.01214,"LONGITUDE":-84.43791,"INDICATOR_SCORE":25,"__OBJECTID":213,"INDUSTRY_SECTOR":null}},{"geometry":{"x":-9439247.17,"y":4527544.1,"spatialReference":{"wkid":102100}},"attributes":{"FACILITY_NAME":"INTELLIGRATED SYSTEMS LLC","STATE":"KY","COUNTY":"BOYLE","LATITUDE":37.63182,"LONGITUDE":-84.7942,"INDICATOR_SCORE":25,"__OBJECTID":214,"INDUSTRY_SECTOR":null}},{"geometry":{"x":-9859454.42,"y":4445665.17,"spatialReference":{"wkid":102100}},"attributes":{"FACILITY_NAME":"TREES N TRENDS","STATE":"KY","COUNTY":"MCCRACKEN","LATITUDE":37.047037,"LONGITUDE":-88.568986,"INDICATOR_SCORE":25,"__OBJECTID":215,"INDUSTRY_SECTOR":null}},{"geometry":{"x":-9733722.84,"y":4415676.61,"spatialReference":{"wkid":102100}},"attributes":{"FACILITY_NAME":"FREUDENBERG HOPKINSVILLE KY SITE","STATE":"KY","COUNTY":"CHRISTIAN","LATITUDE":36.83172,"LONGITUDE":-87.43952,"INDICATOR_SCORE":25,"__OBJECTID":216,"INDUSTRY_SECTOR":null}},{"geometry":{"x":-9438733.98,"y":4527074.49,"spatialReference":{"wkid":102100}},"attributes":{"FACILITY_NAME":"DANA SEALING MANUFACTURING LLC","STATE":"KY","COUNTY":"BOYLE","LATITUDE":37.628479,"LONGITUDE":-84.78959,"INDICATOR_SCORE":25,"__OBJECTID":217,"INDUSTRY_SECTOR":null}},{"geometry":{"x":-9548507.91,"y":4612321.4,"spatialReference":{"wkid":102100}},"attributes":{"FACILITY_NAME":"BYK USA INC","STATE":"KY","COUNTY":"JEFFERSON","LATITUDE":38.232492,"LONGITUDE":-85.775706,"INDICATOR_SCORE":25,"__OBJECTID":218,"INDUSTRY_SECTOR":null}},{"geometry":{"x":-9394272.98,"y":4726932.76,"spatialReference":{"wkid":102100}},"attributes":{"FACILITY_NAME":"CONTINENTAL SILVER GROVE LLC","STATE":"KY","COUNTY":"CAMPBELL","LATITUDE":39.03672,"LONGITUDE":-84.39019,"INDICATOR_SCORE":25,"__OBJECTID":219,"INDUSTRY_SECTOR":null}},{"geometry":{"x":-9410160.5,"y":4587475.48,"spatialReference":{"wkid":102100}},"attributes":{"FACILITY_NAME":"FORTERRA CONCRETE INDUSTRIES INC - LEXINGTON","STATE":"KY","COUNTY":"FAYETTE","LATITUDE":38.05696,"LONGITUDE":-84.53291,"INDICATOR_SCORE":25,"__OBJECTID":220,"INDUSTRY_SECTOR":null}},{"geometry":{"x":-9434734.27,"y":4585712.67,"spatialReference":{"wkid":102100}},"attributes":{"FACILITY_NAME":"LEDVANCE LLC","STATE":"KY","COUNTY":"WOODFORD","LATITUDE":38.04449,"LONGITUDE":-84.75366,"INDICATOR_SCORE":25,"__OBJECTID":221,"INDUSTRY_SECTOR":null}},{"geometry":{"x":-9386934.8,"y":4589355.95,"spatialReference":{"wkid":102100}},"attributes":{"FACILITY_NAME":"PRESTRESS SERVICES INDUSTRIES LLC-LEXINGTON BRANCH","STATE":"KY","COUNTY":"FAYETTE","LATITUDE":38.07026,"LONGITUDE":-84.32427,"INDICATOR_SCORE":25,"__OBJECTID":222,"INDUSTRY_SECTOR":null}},{"geometry":{"x":-9472403.79,"y":4681347.63,"spatialReference":{"wkid":102100}},"attributes":{"FACILITY_NAME":"CERTAINTEED GYPSUM","STATE":"KY","COUNTY":"CARROLL","LATITUDE":38.71793,"LONGITUDE":-85.092051,"INDICATOR_SCORE":25,"__OBJECTID":223,"INDUSTRY_SECTOR":null}},{"geometry":{"x":-9384243.09,"y":4632180.62,"spatialReference":{"wkid":102100}},"attributes":{"FACILITY_NAME":"LANDMARK STONE","STATE":"KY","COUNTY":"HARRISON","LATITUDE":38.37249,"LONGITUDE":-84.30009,"INDICATOR_SCORE":25,"__OBJECTID":224,"INDUSTRY_SECTOR":null}},{"geometry":{"x":-9231461.21,"y":4683524.93,"spatialReference":{"wkid":102100}},"attributes":{"FACILITY_NAME":"HARBISONWALKER INTERNATIONAL INC","STATE":"KY","COUNTY":"GREENUP","LATITUDE":38.733189,"LONGITUDE":-82.927627,"INDICATOR_SCORE":25,"__OBJECTID":225,"INDUSTRY_SECTOR":null}},{"geometry":{"x":-9313668.87,"y":4667780.9,"spatialReference":{"wkid":102100}},"attributes":{"FACILITY_NAME":"CARMEUSE LIME & STONE MAYSVILLE FACILITY","STATE":"KY","COUNTY":"MASON","LATITUDE":38.622778,"LONGITUDE":-83.666111,"INDICATOR_SCORE":25,"__OBJECTID":226,"INDUSTRY_SECTOR":null}},{"geometry":{"x":-9442945.2,"y":4545267.35,"spatialReference":{"wkid":102100}},"attributes":{"FACILITY_NAME":"CORNING INC","STATE":"KY","COUNTY":"MERCER","LATITUDE":37.7578,"LONGITUDE":-84.82742,"INDICATOR_SCORE":25,"__OBJECTID":227,"INDUSTRY_SECTOR":null}},{"geometry":{"x":-9555603.2,"y":4534474.92,"spatialReference":{"wkid":102100}},"attributes":{"FACILITY_NAME":"FORTERRA CONCRETE INDUSTRIES INC - ELIZABETHTOWN","STATE":"KY","COUNTY":"HARDIN","LATITUDE":37.681111,"LONGITUDE":-85.839444,"INDICATOR_SCORE":25,"__OBJECTID":228,"INDUSTRY_SECTOR":null}},{"geometry":{"x":-9736330.39,"y":4416712.39,"spatialReference":{"wkid":102100}},"attributes":{"FACILITY_NAME":"SUPERIOR GRAPHITE CO","STATE":"KY","COUNTY":"CHRISTIAN","LATITUDE":36.839167,"LONGITUDE":-87.462944,"INDICATOR_SCORE":25,"__OBJECTID":229,"INDUSTRY_SECTOR":null}},{"geometry":{"x":-9335362.26,"y":4561719.63,"spatialReference":{"wkid":102100}},"attributes":{"FACILITY_NAME":"MERIDIAN BRICK - STANTON PLANT","STATE":"KY","COUNTY":"POWELL","LATITUDE":37.874554,"LONGITUDE":-83.860986,"INDICATOR_SCORE":25,"__OBJECTID":230,"INDUSTRY_SECTOR":null}},{"geometry":{"x":-9270037.87,"y":4664694.15,"spatialReference":{"wkid":102100}},"attributes":{"FACILITY_NAME":"SUPERIOR COMPOSITES CO LLC","STATE":"KY","COUNTY":"LEWIS","LATITUDE":38.601111,"LONGITUDE":-83.274167,"INDICATOR_SCORE":25,"__OBJECTID":231,"INDUSTRY_SECTOR":null}},{"geometry":{"x":-9453643,"y":4589623.21,"spatialReference":{"wkid":102100}},"attributes":{"FACILITY_NAME":"FLORIDA TILE INC","STATE":"KY","COUNTY":"ANDERSON","LATITUDE":38.07215,"LONGITUDE":-84.92352,"INDICATOR_SCORE":25,"__OBJECTID":232,"INDUSTRY_SECTOR":null}},{"geometry":{"x":-9380814.45,"y":4537179.97,"spatialReference":{"wkid":102100}},"attributes":{"FACILITY_NAME":"AGC FLAT GLASS N AMERICA INC","STATE":"KY","COUNTY":"MADISON","LATITUDE":37.70034,"LONGITUDE":-84.26929,"INDICATOR_SCORE":25,"__OBJECTID":233,"INDUSTRY_SECTOR":null}},{"geometry":{"x":-9673773.96,"y":4568822.13,"spatialReference":{"wkid":102100}},"attributes":{"FACILITY_NAME":"DAL-TILE CORP LEWISPORT PLANT","STATE":"KY","COUNTY":"HANCOCK","LATITUDE":37.9249,"LONGITUDE":-86.90099,"INDICATOR_SCORE":25,"__OBJECTID":234,"INDUSTRY_SECTOR":null}},{"geometry":{"x":-9555946.73,"y":4608230.56,"spatialReference":{"wkid":102100}},"attributes":{"FACILITY_NAME":"FORTERRA CONCRETE INDUSTRIES INC - LOUISVILLE","STATE":"KY","COUNTY":"JEFFERSON","LATITUDE":38.20362,"LONGITUDE":-85.84253,"INDICATOR_SCORE":25,"__OBJECTID":235,"INDUSTRY_SECTOR":null}},{"geometry":{"x":-9213525.75,"y":4657803.56,"spatialReference":{"wkid":102100}},"attributes":{"FACILITY_NAME":"VESUVIUS USA - WURTLAND PLANT","STATE":"KY","COUNTY":"GREENUP","LATITUDE":38.55272,"LONGITUDE":-82.76651,"INDICATOR_SCORE":25,"__OBJECTID":236,"INDUSTRY_SECTOR":null}},{"geometry":{"x":-9413084.86,"y":4588442.54,"spatialReference":{"wkid":102100}},"attributes":{"FACILITY_NAME":"OLDCASTLE PRECAST INC","STATE":"KY","COUNTY":"FAYETTE","LATITUDE":38.0638,"LONGITUDE":-84.55918,"INDICATOR_SCORE":25,"__OBJECTID":237,"INDUSTRY_SECTOR":null}},{"geometry":{"x":-9431253.31,"y":4588487.78,"spatialReference":{"wkid":102100}},"attributes":{"FACILITY_NAME":"PILKINGTON NA INC","STATE":"KY","COUNTY":"WOODFORD","LATITUDE":38.06412,"LONGITUDE":-84.72239,"INDICATOR_SCORE":25,"__OBJECTID":238,"INDUSTRY_SECTOR":null}},{"geometry":{"x":-9377801.26,"y":4698262.72,"spatialReference":{"wkid":102100}},"attributes":{"FACILITY_NAME":"CARMEUSE LIME & STONE BLACK RIVER FACILITY","STATE":"KY","COUNTY":"PENDLETON","LATITUDE":38.836389,"LONGITUDE":-84.242222,"INDICATOR_SCORE":25,"__OBJECTID":239,"INDUSTRY_SECTOR":null}},{"geometry":{"x":-9564663.38,"y":4532638.81,"spatialReference":{"wkid":102100}},"attributes":{"FACILITY_NAME":"AGC AUTOMOTIVE AMERICAS","STATE":"KY","COUNTY":"HARDIN","LATITUDE":37.668056,"LONGITUDE":-85.920833,"INDICATOR_SCORE":25,"__OBJECTID":240,"INDUSTRY_SECTOR":null}},{"geometry":{"x":-9563013.29,"y":4584328.35,"spatialReference":{"wkid":102100}},"attributes":{"FACILITY_NAME":"KOSMOS CEMENT CO LLC","STATE":"KY","COUNTY":"JEFFERSON","LATITUDE":38.034696,"LONGITUDE":-85.90601,"INDICATOR_SCORE":25,"__OBJECTID":241,"INDUSTRY_SECTOR":null}},{"geometry":{"x":-9327200.98,"y":4464313.02,"spatialReference":{"wkid":102100}},"attributes":{"FACILITY_NAME":"FCI MANCHESTER","STATE":"KY","COUNTY":"CLAY","LATITUDE":37.180621,"LONGITUDE":-83.787672,"INDICATOR_SCORE":100,"__OBJECTID":242,"INDUSTRY_SECTOR":null}},{"geometry":{"x":-9886407.65,"y":4455865.73,"spatialReference":{"wkid":102100}},"attributes":{"FACILITY_NAME":"US DOE PADUCAH SITE","STATE":"KY","COUNTY":"MCCRACKEN","LATITUDE":37.120138,"LONGITUDE":-88.811111,"INDICATOR_SCORE":100,"__OBJECTID":243,"INDUSTRY_SECTOR":null}},{"geometry":{"x":-9413886.36,"y":4593255.14,"spatialReference":{"wkid":102100}},"attributes":{"FACILITY_NAME":"NASA JOHNSON SPACE CENTER WHITE SANDS TEST FACILITY","STATE":"KY","COUNTY":"FAYETTE","LATITUDE":38.09783,"LONGITUDE":-84.56638,"INDICATOR_SCORE":100,"__OBJECTID":244,"INDUSTRY_SECTOR":null}},{"geometry":{"x":-9707282.24,"y":4474710.35,"spatialReference":{"wkid":102100}},"attributes":{"FACILITY_NAME":"US COAST GUARD BASE PORTSMOUTH","STATE":"KY","COUNTY":"MUHLENBERG","LATITUDE":37.255,"LONGITUDE":-87.202,"INDICATOR_SCORE":100,"__OBJECTID":245,"INDUSTRY_SECTOR":null}},{"geometry":{"x":-9380182.27,"y":4539672.79,"spatialReference":{"wkid":102100}},"attributes":{"FACILITY_NAME":"US DOD USAF ROBINS AFB","STATE":"KY","COUNTY":"MADISON","LATITUDE":37.718056,"LONGITUDE":-84.263611,"INDICATOR_SCORE":100,"__OBJECTID":246,"INDUSTRY_SECTOR":null}},{"geometry":{"x":-9736774.44,"y":4390614.15,"spatialReference":{"wkid":102100}},"attributes":{"FACILITY_NAME":"U.S. DOD USAF KINGSLEY FIELD ANG","STATE":"KY","COUNTY":"CHRISTIAN","LATITUDE":36.651306,"LONGITUDE":-87.466933,"INDICATOR_SCORE":100,"__OBJECTID":247,"INDUSTRY_SECTOR":null}},{"geometry":{"x":-9564242.26,"y":4461566.35,"spatialReference":{"wkid":102100}},"attributes":{"FACILITY_NAME":"US DOD USAF JOINT BASE ELMENDORF-RICHARDSON","STATE":"KY","COUNTY":"HART","LATITUDE":37.16096,"LONGITUDE":-85.91705,"INDICATOR_SCORE":100,"__OBJECTID":248,"INDUSTRY_SECTOR":null}},{"geometry":{"x":-9568293.4,"y":4565769.54,"spatialReference":{"wkid":102100}},"attributes":{"FACILITY_NAME":"US ARMY FORT STEWART (PART)","STATE":"KY","COUNTY":"HARDIN","LATITUDE":37.903266,"LONGITUDE":-85.953442,"INDICATOR_SCORE":100,"__OBJECTID":249,"INDUSTRY_SECTOR":null}},{"geometry":{"x":-9328824.91,"y":4677369.22,"spatialReference":{"wkid":102100}},"attributes":{"FACILITY_NAME":"ITW/FOILMARK INC","STATE":"KY","COUNTY":"MASON","LATITUDE":38.69004,"LONGITUDE":-83.80226,"INDICATOR_SCORE":50,"__OBJECTID":250,"INDUSTRY_SECTOR":null}},{"geometry":{"x":-9718691.37,"y":4554389.73,"spatialReference":{"wkid":102100}},"attributes":{"FACILITY_NAME":"THE NEWARK GROUP INC","STATE":"KY","COUNTY":"DAVIESS","LATITUDE":37.82256,"LONGITUDE":-87.30449,"INDICATOR_SCORE":50,"__OBJECTID":251,"INDUSTRY_SECTOR":null}},{"geometry":{"x":-9383619.7,"y":4632444.16,"spatialReference":{"wkid":102100}},"attributes":{"FACILITY_NAME":"BLUE RIDGE PAPER PRODUCTS LLC","STATE":"KY","COUNTY":"HARRISON","LATITUDE":38.374346,"LONGITUDE":-84.29449,"INDICATOR_SCORE":50,"__OBJECTID":252,"INDUSTRY_SECTOR":null}},{"geometry":{"x":-9750253.79,"y":4553547.02,"spatialReference":{"wkid":102100}},"attributes":{"FACILITY_NAME":"OX PAPERBOARD MICHIGAN LLC","STATE":"KY","COUNTY":"HENDERSON","LATITUDE":37.81658,"LONGITUDE":-87.58802,"INDICATOR_SCORE":50,"__OBJECTID":253,"INDUSTRY_SECTOR":null}},{"geometry":{"x":-9740672.52,"y":4487634.12,"spatialReference":{"wkid":102100}},"attributes":{"FACILITY_NAME":"WEIDMANN ELECTRICAL TECHNOLOGY INC (0511005006)","STATE":"KY","COUNTY":"HOPKINS","LATITUDE":37.34735,"LONGITUDE":-87.50195,"INDICATOR_SCORE":50,"__OBJECTID":254,"INDUSTRY_SECTOR":null}},{"geometry":{"x":-9916326.88,"y":4431360.95,"spatialReference":{"wkid":102100}},"attributes":{"FACILITY_NAME":"WESTROCK CONVERTING LLC","STATE":"KY","COUNTY":"BALLARD","LATITUDE":36.944409,"LONGITUDE":-89.07988,"INDICATOR_SCORE":50,"__OBJECTID":255,"INDUSTRY_SECTOR":null}},{"geometry":{"x":-9649818.34,"y":4564581.85,"spatialReference":{"wkid":102100}},"attributes":{"FACILITY_NAME":"INTERNATIONAL PAPER GEORGETOWN MILL","STATE":"KY","COUNTY":"HANCOCK","LATITUDE":37.894847,"LONGITUDE":-86.685793,"INDICATOR_SCORE":50,"__OBJECTID":256,"INDUSTRY_SECTOR":null}},{"geometry":{"x":-9555356.73,"y":4611655.63,"spatialReference":{"wkid":102100}},"attributes":{"FACILITY_NAME":"CERTAINTEED JONESBURG ROOFING PLANT","STATE":"KY","COUNTY":"JEFFERSON","LATITUDE":38.227794,"LONGITUDE":-85.83723,"INDICATOR_SCORE":75,"__OBJECTID":257,"INDUSTRY_SECTOR":null}},{"geometry":{"x":-9622993.34,"y":4439463.62,"spatialReference":{"wkid":102100}},"attributes":{"FACILITY_NAME":"PAR HAWAII REFINING LLC","STATE":"KY","COUNTY":"WARREN","LATITUDE":37.00256,"LONGITUDE":-86.44482,"INDICATOR_SCORE":75,"__OBJECTID":258,"INDUSTRY_SECTOR":null}},{"geometry":{"x":-9811978.22,"y":4442049.8,"spatialReference":{"wkid":102100}},"attributes":{"FACILITY_NAME":"GAF BUILDING MATERIALS CORP","STATE":"KY","COUNTY":"LYON","LATITUDE":37.021111,"LONGITUDE":-88.1425,"INDICATOR_SCORE":75,"__OBJECTID":259,"INDUSTRY_SECTOR":null}},{"geometry":{"x":-9562577.58,"y":4597801.53,"spatialReference":{"wkid":102100}},"attributes":{"FACILITY_NAME":"MICHIGAN PAVING & MATERIALS- WOODLAND","STATE":"KY","COUNTY":"JEFFERSON","LATITUDE":38.129963,"LONGITUDE":-85.902096,"INDICATOR_SCORE":75,"__OBJECTID":260,"INDUSTRY_SECTOR":null}},{"geometry":{"x":-9194674.01,"y":4632855.95,"spatialReference":{"wkid":102100}},"attributes":{"FACILITY_NAME":"AMERICAN REFINING GROUP INC","STATE":"KY","COUNTY":"BOYD","LATITUDE":38.377246,"LONGITUDE":-82.597162,"INDICATOR_SCORE":75,"__OBJECTID":261,"INDUSTRY_SECTOR":null}},{"geometry":{"x":-9693790.31,"y":4547366.93,"spatialReference":{"wkid":102100}},"attributes":{"FACILITY_NAME":"MOUNTAIN STATE CARBON LLC","STATE":"KY","COUNTY":"DAVIESS","LATITUDE":37.77271,"LONGITUDE":-87.0808,"INDICATOR_SCORE":75,"__OBJECTID":262,"INDUSTRY_SECTOR":null}},{"geometry":{"x":-9410729.34,"y":4587950.51,"spatialReference":{"wkid":102100}},"attributes":{"FACILITY_NAME":"TULCO OILS INC","STATE":"KY","COUNTY":"FAYETTE","LATITUDE":38.06032,"LONGITUDE":-84.53802,"INDICATOR_SCORE":75,"__OBJECTID":263,"INDUSTRY_SECTOR":null}},{"geometry":{"x":-9515327.36,"y":4556777.29,"spatialReference":{"wkid":102100}},"attributes":{"FACILITY_NAME":"SINCLAIR KANSAS CITY PRODUCTS TERMINAL","STATE":"KY","COUNTY":"NELSON","LATITUDE":37.8395,"LONGITUDE":-85.47764,"INDICATOR_SCORE":75,"__OBJECTID":264,"INDUSTRY_SECTOR":null}},{"geometry":{"x":-9554528.52,"y":4612065.18,"spatialReference":{"wkid":102100}},"attributes":{"FACILITY_NAME":"BALTIMORE TERMINAL","STATE":"KY","COUNTY":"JEFFERSON","LATITUDE":38.230684,"LONGITUDE":-85.82979,"INDICATOR_SCORE":75,"__OBJECTID":265,"INDUSTRY_SECTOR":null}},{"geometry":{"x":-9369137.04,"y":4581126.8,"spatialReference":{"wkid":102100}},"attributes":{"FACILITY_NAME":"TESORO EAST HYNES TERMINAL","STATE":"KY","COUNTY":"CLARK","LATITUDE":38.01204,"LONGITUDE":-84.16439,"INDICATOR_SCORE":75,"__OBJECTID":266,"INDUSTRY_SECTOR":null}},{"geometry":{"x":-9854964.02,"y":4442940.63,"spatialReference":{"wkid":102100}},"attributes":{"FACILITY_NAME":"C-PORT 2 LLC","STATE":"KY","COUNTY":"MCCRACKEN","LATITUDE":37.0275,"LONGITUDE":-88.528648,"INDICATOR_SCORE":75,"__OBJECTID":267,"INDUSTRY_SECTOR":null}},{"geometry":{"x":-9863401.14,"y":4452047.03,"spatialReference":{"wkid":102100}},"attributes":{"FACILITY_NAME":"SAFETY-KLEEN SYSTEMS INC BUFFALO OIL RECOVERY FACILITY","STATE":"KY","COUNTY":"MCCRACKEN","LATITUDE":37.09278,"LONGITUDE":-88.60444,"INDICATOR_SCORE":75,"__OBJECTID":268,"INDUSTRY_SECTOR":null}},{"geometry":{"x":-9406470.03,"y":4729212.89,"spatialReference":{"wkid":102100}},"attributes":{"FACILITY_NAME":"TESORO SAN DIEGO TERMINAL","STATE":"KY","COUNTY":"KENTON","LATITUDE":39.052628,"LONGITUDE":-84.499758,"INDICATOR_SCORE":75,"__OBJECTID":269,"INDUSTRY_SECTOR":null}},{"geometry":{"x":-9636215.87,"y":4410235.81,"spatialReference":{"wkid":102100}},"attributes":{"FACILITY_NAME":"LUBRICATION TECHNOLOGIES INC","STATE":"KY","COUNTY":"SIMPSON","LATITUDE":36.79259,"LONGITUDE":-86.5636,"INDICATOR_SCORE":75,"__OBJECTID":270,"INDUSTRY_SECTOR":null}},{"geometry":{"x":-9561824.4,"y":4600774.82,"spatialReference":{"wkid":102100}},"attributes":{"FACILITY_NAME":"TESORO LOGISTICS BOISE TERMINAL","STATE":"KY","COUNTY":"JEFFERSON","LATITUDE":38.15097,"LONGITUDE":-85.89533,"INDICATOR_SCORE":75,"__OBJECTID":271,"INDUSTRY_SECTOR":null}},{"geometry":{"x":-9421528.44,"y":4731405.2,"spatialReference":{"wkid":102100}},"attributes":{"FACILITY_NAME":"ALLIED AVIATION FUELING CO OF HOUSTON INC","STATE":"KY","COUNTY":"BOONE","LATITUDE":39.06792,"LONGITUDE":-84.63503,"INDICATOR_SCORE":75,"__OBJECTID":272,"INDUSTRY_SECTOR":null}},{"geometry":{"x":-9215240.07,"y":4533086.31,"spatialReference":{"wkid":102100}},"attributes":{"FACILITY_NAME":"FLINT HILLS RESOURCES CORPUS CHRISTI LLC MUSTANG RIDGE","STATE":"KY","COUNTY":"FLOYD","LATITUDE":37.671238,"LONGITUDE":-82.78191,"INDICATOR_SCORE":75,"__OBJECTID":273,"INDUSTRY_SECTOR":null}},{"geometry":{"x":-9556656.84,"y":4608394.04,"spatialReference":{"wkid":102100}},"attributes":{"FACILITY_NAME":"GLOBAL COS LLC ALBANY TERMINAL","STATE":"KY","COUNTY":"JEFFERSON","LATITUDE":38.204774,"LONGITUDE":-85.848909,"INDICATOR_SCORE":75,"__OBJECTID":274,"INDUSTRY_SECTOR":null}},{"geometry":{"x":-9341867.1,"y":4590229.86,"spatialReference":{"wkid":102100}},"attributes":{"FACILITY_NAME":"MOTIVA ENTERPRISES LLC - PORT EVERGLADES EAST TERMINAL","STATE":"KY","COUNTY":"MONTGOMERY","LATITUDE":38.07644,"LONGITUDE":-83.91942,"INDICATOR_SCORE":75,"__OBJECTID":275,"INDUSTRY_SECTOR":null}},{"geometry":{"x":-9487454.07,"y":4536451.2,"spatialReference":{"wkid":102100}},"attributes":{"FACILITY_NAME":"SPEARS MANUFACTURING CO","STATE":"KY","COUNTY":"WASHINGTON","LATITUDE":37.69516,"LONGITUDE":-85.22725,"INDICATOR_SCORE":25,"__OBJECTID":276,"INDUSTRY_SECTOR":null}},{"geometry":{"x":-9674096.67,"y":4418992.24,"spatialReference":{"wkid":102100}},"attributes":{"FACILITY_NAME":"US BATH GROUP LLC - DBA - MPL CO","STATE":"KY","COUNTY":"LOGAN","LATITUDE":36.855556,"LONGITUDE":-86.903889,"INDICATOR_SCORE":25,"__OBJECTID":277,"INDUSTRY_SECTOR":null}},{"geometry":{"x":-9380983.66,"y":4537642.86,"spatialReference":{"wkid":102100}},"attributes":{"FACILITY_NAME":"BEST BATH SYSTEMS","STATE":"KY","COUNTY":"MADISON","LATITUDE":37.70363,"LONGITUDE":-84.27081,"INDICATOR_SCORE":25,"__OBJECTID":278,"INDUSTRY_SECTOR":null}},{"geometry":{"x":-9546142.93,"y":4599378.3,"spatialReference":{"wkid":102100}},"attributes":{"FACILITY_NAME":"PLASTPRO INC","STATE":"KY","COUNTY":"JEFFERSON","LATITUDE":38.141104,"LONGITUDE":-85.754461,"INDICATOR_SCORE":25,"__OBJECTID":279,"INDUSTRY_SECTOR":null}},{"geometry":{"x":-9836005.42,"y":4420503.78,"spatialReference":{"wkid":102100}},"attributes":{"FACILITY_NAME":"HYGENIC CORP","STATE":"KY","COUNTY":"MARSHALL","LATITUDE":36.86642,"LONGITUDE":-88.35834,"INDICATOR_SCORE":25,"__OBJECTID":280,"INDUSTRY_SECTOR":null}},{"geometry":{"x":-9421379.27,"y":4717368.08,"spatialReference":{"wkid":102100}},"attributes":{"FACILITY_NAME":"PATCH RUBBER CO","STATE":"KY","COUNTY":"BOONE","LATITUDE":38.96995,"LONGITUDE":-84.63369,"INDICATOR_SCORE":25,"__OBJECTID":281,"INDUSTRY_SECTOR":null}},{"geometry":{"x":-9367566.1,"y":4399995.64,"spatialReference":{"wkid":102100}},"attributes":{"FACILITY_NAME":"CRANE COMPOSITES INC","STATE":"KY","COUNTY":"WHITLEY","LATITUDE":36.718889,"LONGITUDE":-84.150278,"INDICATOR_SCORE":25,"__OBJECTID":282,"INDUSTRY_SECTOR":null}},{"geometry":{"x":-9420268.31,"y":4718131.26,"spatialReference":{"wkid":102100}},"attributes":{"FACILITY_NAME":"R3 COMPOSITES CORP","STATE":"KY","COUNTY":"BOONE","LATITUDE":38.97528,"LONGITUDE":-84.62371,"INDICATOR_SCORE":25,"__OBJECTID":283,"INDUSTRY_SECTOR":null}},{"geometry":{"x":-9358944.63,"y":4454810.63,"spatialReference":{"wkid":102100}},"attributes":{"FACILITY_NAME":"LIDE INDUSTRIES-TROY FIBERGLASS","STATE":"KY","COUNTY":"LAUREL","LATITUDE":37.11258,"LONGITUDE":-84.07283,"INDICATOR_SCORE":25,"__OBJECTID":284,"INDUSTRY_SECTOR":null}},{"geometry":{"x":-9484023.09,"y":4611118.29,"spatialReference":{"wkid":102100}},"attributes":{"FACILITY_NAME":"TPI COMPOSITES INC","STATE":"KY","COUNTY":"SHELBY","LATITUDE":38.224002,"LONGITUDE":-85.196429,"INDICATOR_SCORE":25,"__OBJECTID":285,"INDUSTRY_SECTOR":null}},{"geometry":{"x":-9473768.45,"y":4404589.37,"spatialReference":{"wkid":102100}},"attributes":{"FACILITY_NAME":"NATIONWIDE TANK & PIPE LLC","STATE":"KY","COUNTY":"CLINTON","LATITUDE":36.75196,"LONGITUDE":-85.10431,"INDICATOR_SCORE":25,"__OBJECTID":286,"INDUSTRY_SECTOR":null}},{"geometry":{"x":-9627574.14,"y":4433008.96,"spatialReference":{"wkid":102100}},"attributes":{"FACILITY_NAME":"HEXPOL - TALLAPOOSA (PKA PREFERRED COMPOUNDING CORP)","STATE":"KY","COUNTY":"WARREN","LATITUDE":36.95624,"LONGITUDE":-86.48597,"INDICATOR_SCORE":25,"__OBJECTID":287,"INDUSTRY_SECTOR":null}},{"geometry":{"x":-9631356.78,"y":4398298.86,"spatialReference":{"wkid":102100}},"attributes":{"FACILITY_NAME":"FIBERDOME INC PLANT 2","STATE":"KY","COUNTY":"SIMPSON","LATITUDE":36.70667,"LONGITUDE":-86.51995,"INDICATOR_SCORE":25,"__OBJECTID":288,"INDUSTRY_SECTOR":null}},{"geometry":{"x":-9549090.56,"y":4610708.5,"spatialReference":{"wkid":102100}},"attributes":{"FACILITY_NAME":"POLYSEAL CORP","STATE":"KY","COUNTY":"JEFFERSON","LATITUDE":38.22111,"LONGITUDE":-85.78094,"INDICATOR_SCORE":25,"__OBJECTID":289,"INDUSTRY_SECTOR":null}},{"geometry":{"x":-9693662.3,"y":4546657.17,"spatialReference":{"wkid":102100}},"attributes":{"FACILITY_NAME":"LATHAM POOL PRODUCTS INC D/B/A VIKING POOLS-LA","STATE":"KY","COUNTY":"DAVIESS","LATITUDE":37.76767,"LONGITUDE":-87.07965,"INDICATOR_SCORE":25,"__OBJECTID":290,"INDUSTRY_SECTOR":null}},{"geometry":{"x":-9419969.97,"y":4718046.78,"spatialReference":{"wkid":102100}},"attributes":{"FACILITY_NAME":"UNIVERSAL PRODUCTS INC","STATE":"KY","COUNTY":"BOONE","LATITUDE":38.97469,"LONGITUDE":-84.62103,"INDICATOR_SCORE":25,"__OBJECTID":291,"INDUSTRY_SECTOR":null}},{"geometry":{"x":-9215938.04,"y":4657876.16,"spatialReference":{"wkid":102100}},"attributes":{"FACILITY_NAME":"TOPP INDUSTRIES INC","STATE":"KY","COUNTY":"GREENUP","LATITUDE":38.55323,"LONGITUDE":-82.78818,"INDICATOR_SCORE":25,"__OBJECTID":292,"INDUSTRY_SECTOR":null}},{"geometry":{"x":-9420036.76,"y":4729638.93,"spatialReference":{"wkid":102100}},"attributes":{"FACILITY_NAME":"GRIFFITH POLYMERS INC","STATE":"KY","COUNTY":"BOONE","LATITUDE":39.0556,"LONGITUDE":-84.62163,"INDICATOR_SCORE":25,"__OBJECTID":293,"INDUSTRY_SECTOR":null}},{"geometry":{"x":-9637650.78,"y":4405134.01,"spatialReference":{"wkid":102100}},"attributes":{"FACILITY_NAME":"FIBRE TECH INC","STATE":"KY","COUNTY":"SIMPSON","LATITUDE":36.75588,"LONGITUDE":-86.57649,"INDICATOR_SCORE":25,"__OBJECTID":294,"INDUSTRY_SECTOR":null}},{"geometry":{"x":-9690330.73,"y":4552698.19,"spatialReference":{"wkid":102100}},"attributes":{"FACILITY_NAME":"SONOCO PROTECTIVE SOLUTIONS INC","STATE":"KY","COUNTY":"DAVIESS","LATITUDE":37.810556,"LONGITUDE":-87.049722,"INDICATOR_SCORE":25,"__OBJECTID":295,"INDUSTRY_SECTOR":null}},{"geometry":{"x":-9829517.05,"y":4389760.99,"spatialReference":{"wkid":102100}},"attributes":{"FACILITY_NAME":"SPACEAGE SYNTHETICS LTD","STATE":"KY","COUNTY":"CALLOWAY","LATITUDE":36.645157,"LONGITUDE":-88.300054,"INDICATOR_SCORE":25,"__OBJECTID":296,"INDUSTRY_SECTOR":null}},{"geometry":{"x":-9851209.1,"y":4441709.05,"spatialReference":{"wkid":102100}},"attributes":{"FACILITY_NAME":"QUANEX IG SYSTEMS","STATE":"KY","COUNTY":"MCCRACKEN","LATITUDE":37.018667,"LONGITUDE":-88.494917,"INDICATOR_SCORE":25,"__OBJECTID":297,"INDUSTRY_SECTOR":null}},{"geometry":{"x":-9293224.6,"y":4609089.06,"spatialReference":{"wkid":102100}},"attributes":{"FACILITY_NAME":"ATLAS ROOFING CORP","STATE":"KY","COUNTY":"ROWAN","LATITUDE":38.20968,"LONGITUDE":-83.482457,"INDICATOR_SCORE":25,"__OBJECTID":298,"INDUSTRY_SECTOR":null}},{"geometry":{"x":-9418634.14,"y":4717565.67,"spatialReference":{"wkid":102100}},"attributes":{"FACILITY_NAME":"MAAX US CORP","STATE":"KY","COUNTY":"KENTON","LATITUDE":38.97133,"LONGITUDE":-84.60903,"INDICATOR_SCORE":25,"__OBJECTID":299,"INDUSTRY_SECTOR":null}},{"geometry":{"x":-9425593.83,"y":4732920.84,"spatialReference":{"wkid":102100}},"attributes":{"FACILITY_NAME":"TORAY PLASTICS (AMERICA) INC","STATE":"KY","COUNTY":"BOONE","LATITUDE":39.07849,"LONGITUDE":-84.67155,"INDICATOR_SCORE":25,"__OBJECTID":300,"INDUSTRY_SECTOR":null}},{"geometry":{"x":-9556252.75,"y":4609243.06,"spatialReference":{"wkid":102100}},"attributes":{"FACILITY_NAME":"COLD CHAIN TECHNOLOGIES LLC","STATE":"KY","COUNTY":"JEFFERSON","LATITUDE":38.210767,"LONGITUDE":-85.845279,"INDICATOR_SCORE":25,"__OBJECTID":301,"INDUSTRY_SECTOR":null}},{"geometry":{"x":-9510025.21,"y":4554701.32,"spatialReference":{"wkid":102100}},"attributes":{"FACILITY_NAME":"BWFREEMAN INC","STATE":"KY","COUNTY":"NELSON","LATITUDE":37.824771,"LONGITUDE":-85.43001,"INDICATOR_SCORE":25,"__OBJECTID":302,"INDUSTRY_SECTOR":null}},{"geometry":{"x":-9490731.32,"y":4608998.39,"spatialReference":{"wkid":102100}},"attributes":{"FACILITY_NAME":"SIGNICAST LLC HARTFORD MANUFACTURING COMPLEX","STATE":"KY","COUNTY":"SHELBY","LATITUDE":38.20904,"LONGITUDE":-85.25669,"INDICATOR_SCORE":50,"__OBJECTID":303,"INDUSTRY_SECTOR":null}},{"geometry":{"x":-9756242.77,"y":4551947.76,"spatialReference":{"wkid":102100}},"attributes":{"FACILITY_NAME":"AMERICAN CASTINGS LLC","STATE":"KY","COUNTY":"HENDERSON","LATITUDE":37.80523,"LONGITUDE":-87.64182,"INDICATOR_SCORE":50,"__OBJECTID":304,"INDUSTRY_SECTOR":null}},{"geometry":{"x":-9560953.66,"y":4603759.3,"spatialReference":{"wkid":102100}},"attributes":{"FACILITY_NAME":"PAC FOUNDRIES-INDUSTRY","STATE":"KY","COUNTY":"JEFFERSON","LATITUDE":38.17205,"LONGITUDE":-85.887508,"INDICATOR_SCORE":50,"__OBJECTID":305,"INDUSTRY_SECTOR":null}},{"geometry":{"x":-9493264.5,"y":4608894.83,"spatialReference":{"wkid":102100}},"attributes":{"FACILITY_NAME":"ALLIED METAL CO","STATE":"KY","COUNTY":"SHELBY","LATITUDE":38.208309,"LONGITUDE":-85.279446,"INDICATOR_SCORE":50,"__OBJECTID":306,"INDUSTRY_SECTOR":null}},{"geometry":{"x":-9637825.11,"y":4402734.89,"spatialReference":{"wkid":102100}},"attributes":{"FACILITY_NAME":"HARSCO METALS  - ECR","STATE":"KY","COUNTY":"SIMPSON","LATITUDE":36.738611,"LONGITUDE":-86.578056,"INDICATOR_SCORE":50,"__OBJECTID":307,"INDUSTRY_SECTOR":null}},{"geometry":{"x":-9835197.24,"y":4446982.3,"spatialReference":{"wkid":102100}},"attributes":{"FACILITY_NAME":"NORTHWEST PIPE CO","STATE":"KY","COUNTY":"MARSHALL","LATITUDE":37.05648,"LONGITUDE":-88.35108,"INDICATOR_SCORE":50,"__OBJECTID":308,"INDUSTRY_SECTOR":null}},{"geometry":{"x":-9381000.36,"y":4610576.73,"spatialReference":{"wkid":102100}},"attributes":{"FACILITY_NAME":"CERRO FLOW PRODUCTS LLC","STATE":"KY","COUNTY":"BOURBON","LATITUDE":38.22018,"LONGITUDE":-84.27096,"INDICATOR_SCORE":50,"__OBJECTID":309,"INDUSTRY_SECTOR":null}},{"geometry":{"x":-9660207.12,"y":4570949.2,"spatialReference":{"wkid":102100}},"attributes":{"FACILITY_NAME":"SELMET INC","STATE":"KY","COUNTY":"HANCOCK","LATITUDE":37.939971,"LONGITUDE":-86.779117,"INDICATOR_SCORE":50,"__OBJECTID":310,"INDUSTRY_SECTOR":null}},{"geometry":{"x":-9733855.31,"y":4415009.05,"spatialReference":{"wkid":102100}},"attributes":{"FACILITY_NAME":"YOUNG CORPORPORATION MELTEC DIV","STATE":"KY","COUNTY":"CHRISTIAN","LATITUDE":36.82692,"LONGITUDE":-87.44071,"INDICATOR_SCORE":50,"__OBJECTID":311,"INDUSTRY_SECTOR":null}},{"geometry":{"x":-9384511.37,"y":4523696.74,"spatialReference":{"wkid":102100}},"attributes":{"FACILITY_NAME":"SOUTHWIRE CO-MINERAL WELLS PLANT","STATE":"KY","COUNTY":"MADISON","LATITUDE":37.604444,"LONGITUDE":-84.3025,"INDICATOR_SCORE":50,"__OBJECTID":312,"INDUSTRY_SECTOR":null}},{"geometry":{"x":-9551416.02,"y":4613442.16,"spatialReference":{"wkid":102100}},"attributes":{"FACILITY_NAME":"BADGER FOUNDRY CO","STATE":"KY","COUNTY":"JEFFERSON","LATITUDE":38.2404,"LONGITUDE":-85.80183,"INDICATOR_SCORE":50,"__OBJECTID":313,"INDUSTRY_SECTOR":null}},{"geometry":{"x":-9744166.06,"y":4530256.06,"spatialReference":{"wkid":102100}},"attributes":{"FACILITY_NAME":"HYDRO EXTRUSION NA LLC","STATE":"KY","COUNTY":"HENDERSON","LATITUDE":37.651111,"LONGITUDE":-87.533333,"INDICATOR_SCORE":50,"__OBJECTID":314,"INDUSTRY_SECTOR":null}},{"geometry":{"x":-9755245.46,"y":4552445.41,"spatialReference":{"wkid":102100}},"attributes":{"FACILITY_NAME":"GOULDS TURBINE FOUNDRY","STATE":"KY","COUNTY":"HENDERSON","LATITUDE":37.808762,"LONGITUDE":-87.632861,"INDICATOR_SCORE":50,"__OBJECTID":315,"INDUSTRY_SECTOR":null}},{"geometry":{"x":-9673492.99,"y":4417812.54,"spatialReference":{"wkid":102100}},"attributes":{"FACILITY_NAME":"CMC STEEL FLORIDA","STATE":"KY","COUNTY":"LOGAN","LATITUDE":36.847076,"LONGITUDE":-86.898466,"INDICATOR_SCORE":50,"__OBJECTID":316,"INDUSTRY_SECTOR":null}},{"geometry":{"x":-9475226.52,"y":4679355.37,"spatialReference":{"wkid":102100}},"attributes":{"FACILITY_NAME":"JEFFREY CHAIN LP (OPERATING AS RENOLD JEFFREY)","STATE":"KY","COUNTY":"GALLATIN","LATITUDE":38.703965,"LONGITUDE":-85.117408,"INDICATOR_SCORE":50,"__OBJECTID":317,"INDUSTRY_SECTOR":null}},{"geometry":{"x":-9405507.45,"y":4731424.7,"spatialReference":{"wkid":102100}},"attributes":{"FACILITY_NAME":"NSS TECHNOLOGIES INC","STATE":"KY","COUNTY":"CAMPBELL","LATITUDE":39.068056,"LONGITUDE":-84.491111,"INDICATOR_SCORE":50,"__OBJECTID":318,"INDUSTRY_SECTOR":null}},{"geometry":{"x":-9547223.4,"y":4600834.13,"spatialReference":{"wkid":102100}},"attributes":{"FACILITY_NAME":"MINTEQ/SPECIALTY MINERALS","STATE":"KY","COUNTY":"JEFFERSON","LATITUDE":38.151389,"LONGITUDE":-85.764167,"INDICATOR_SCORE":50,"__OBJECTID":319,"INDUSTRY_SECTOR":null}},{"geometry":{"x":-9758065.07,"y":4552907.29,"spatialReference":{"wkid":102100}},"attributes":{"FACILITY_NAME":"OS KELLY CO","STATE":"KY","COUNTY":"HENDERSON","LATITUDE":37.81204,"LONGITUDE":-87.65819,"INDICATOR_SCORE":50,"__OBJECTID":320,"INDUSTRY_SECTOR":null}},{"geometry":{"x":-9202071.08,"y":4650064.72,"spatialReference":{"wkid":102100}},"attributes":{"FACILITY_NAME":"BRISTOL METALS LLC - MUNHALL PLANT","STATE":"KY","COUNTY":"BOYD","LATITUDE":38.498333,"LONGITUDE":-82.663611,"INDICATOR_SCORE":50,"__OBJECTID":321,"INDUSTRY_SECTOR":null}},{"geometry":{"x":-9740522.24,"y":4531070.03,"spatialReference":{"wkid":102100}},"attributes":{"FACILITY_NAME":"BOOSE QUALITY CASTINGS","STATE":"KY","COUNTY":"HENDERSON","LATITUDE":37.6569,"LONGITUDE":-87.5006,"INDICATOR_SCORE":50,"__OBJECTID":322,"INDUSTRY_SECTOR":null}},{"geometry":{"x":-9758120.73,"y":4551594.13,"spatialReference":{"wkid":102100}},"attributes":{"FACILITY_NAME":"VOESTALPINE TEXAS LLC","STATE":"KY","COUNTY":"HENDERSON","LATITUDE":37.80272,"LONGITUDE":-87.65869,"INDICATOR_SCORE":50,"__OBJECTID":323,"INDUSTRY_SECTOR":null}},{"geometry":{"x":-9539429.14,"y":4600895.14,"spatialReference":{"wkid":102100}},"attributes":{"FACILITY_NAME":"JSW STEEL USA OHIO INC","STATE":"KY","COUNTY":"JEFFERSON","LATITUDE":38.15182,"LONGITUDE":-85.69415,"INDICATOR_SCORE":50,"__OBJECTID":324,"INDUSTRY_SECTOR":null}},{"geometry":{"x":-9629802.76,"y":4429535.21,"spatialReference":{"wkid":102100}},"attributes":{"FACILITY_NAME":"INTERNATIONAL WIRE GROUP-OMEGA WIRE FACILITY","STATE":"KY","COUNTY":"WARREN","LATITUDE":36.9313,"LONGITUDE":-86.50599,"INDICATOR_SCORE":50,"__OBJECTID":325,"INDUSTRY_SECTOR":null}},{"geometry":{"x":-9462620.59,"y":4688303.52,"spatialReference":{"wkid":102100}},"attributes":{"FACILITY_NAME":"SHELBY WELDED TUBE","STATE":"KY","COUNTY":"GALLATIN","LATITUDE":38.766667,"LONGITUDE":-85.004167,"INDICATOR_SCORE":50,"__OBJECTID":326,"INDUSTRY_SECTOR":null}},{"geometry":{"x":-9667629.57,"y":4572482.21,"spatialReference":{"wkid":102100}},"attributes":{"FACILITY_NAME":"HOWELL METAL CO","STATE":"KY","COUNTY":"HANCOCK","LATITUDE":37.950831,"LONGITUDE":-86.845794,"INDICATOR_SCORE":50,"__OBJECTID":327,"INDUSTRY_SECTOR":null}},{"geometry":{"x":-9654028.22,"y":4466322.24,"spatialReference":{"wkid":102100}},"attributes":{"FACILITY_NAME":"OUTOKUMPU STAINLESS BAR LLC","STATE":"KY","COUNTY":"BUTLER","LATITUDE":37.195,"LONGITUDE":-86.723611,"INDICATOR_SCORE":50,"__OBJECTID":328,"INDUSTRY_SECTOR":null}},{"geometry":{"x":-9555400.15,"y":4609623.18,"spatialReference":{"wkid":102100}},"attributes":{"FACILITY_NAME":"GREDE II - BREWTON","STATE":"KY","COUNTY":"JEFFERSON","LATITUDE":38.21345,"LONGITUDE":-85.83762,"INDICATOR_SCORE":50,"__OBJECTID":329,"INDUSTRY_SECTOR":null}},{"geometry":{"x":-9677825.1,"y":4431148.68,"spatialReference":{"wkid":102100}},"attributes":{"FACILITY_NAME":"BRAEBURN ALLOY STEEL ROLLING MILL FAC","STATE":"KY","COUNTY":"LOGAN","LATITUDE":36.942885,"LONGITUDE":-86.937382,"INDICATOR_SCORE":50,"__OBJECTID":330,"INDUSTRY_SECTOR":null}},{"geometry":{"x":-9676508.63,"y":4492246.02,"spatialReference":{"wkid":102100}},"attributes":{"FACILITY_NAME":"PERMA-CAST A WABTEC CO","STATE":"KY","COUNTY":"OHIO","LATITUDE":37.380278,"LONGITUDE":-86.925556,"INDICATOR_SCORE":50,"__OBJECTID":331,"INDUSTRY_SECTOR":null}},{"geometry":{"x":-9565293.11,"y":4435459.65,"spatialReference":{"wkid":102100}},"attributes":{"FACILITY_NAME":"PACE INDUSTRIES GRAFTON DIV","STATE":"KY","COUNTY":"BARREN","LATITUDE":36.97383,"LONGITUDE":-85.92649,"INDICATOR_SCORE":50,"__OBJECTID":332,"INDUSTRY_SECTOR":null}},{"geometry":{"x":-9661171.25,"y":4571658.93,"spatialReference":{"wkid":102100}},"attributes":{"FACILITY_NAME":"GRANGES AMERICAS INC","STATE":"KY","COUNTY":"HANCOCK","LATITUDE":37.944999,"LONGITUDE":-86.787778,"INDICATOR_SCORE":50,"__OBJECTID":333,"INDUSTRY_SECTOR":null}},{"geometry":{"x":-9480122.46,"y":4630012.94,"spatialReference":{"wkid":102100}},"attributes":{"FACILITY_NAME":"GENERAL CABLE INDUSTRIES INC","STATE":"KY","COUNTY":"HENRY","LATITUDE":38.357222,"LONGITUDE":-85.161389,"INDICATOR_SCORE":50,"__OBJECTID":334,"INDUSTRY_SECTOR":null}},{"geometry":{"x":-9364195.57,"y":4441817.38,"spatialReference":{"wkid":102100}},"attributes":{"FACILITY_NAME":"MAGPRO LLC","STATE":"KY","COUNTY":"LAUREL","LATITUDE":37.019444,"LONGITUDE":-84.12,"INDICATOR_SCORE":50,"__OBJECTID":335,"INDUSTRY_SECTOR":null}},{"geometry":{"x":-9192860.4,"y":4617218.6,"spatialReference":{"wkid":102100}},"attributes":{"FACILITY_NAME":"RYDER-HEIL BRONZE INC","STATE":"KY","COUNTY":"BOYD","LATITUDE":38.26704,"LONGITUDE":-82.58087,"INDICATOR_SCORE":50,"__OBJECTID":336,"INDUSTRY_SECTOR":null}},{"geometry":{"x":-9470196.43,"y":4682752.78,"spatialReference":{"wkid":102100}},"attributes":{"FACILITY_NAME":"ASHLAND FOUNDRY & MACHINE WORKS","STATE":"KY","COUNTY":"CARROLL","LATITUDE":38.727778,"LONGITUDE":-85.072222,"INDICATOR_SCORE":50,"__OBJECTID":337,"INDUSTRY_SECTOR":null}},{"geometry":{"x":-9744901.88,"y":4488819.26,"spatialReference":{"wkid":102100}},"attributes":{"FACILITY_NAME":"PLYMOUTH TUBE CO","STATE":"KY","COUNTY":"HOPKINS","LATITUDE":37.355813,"LONGITUDE":-87.539943,"INDICATOR_SCORE":50,"__OBJECTID":338,"INDUSTRY_SECTOR":null}},{"geometry":{"x":-9480583.43,"y":4630185.85,"spatialReference":{"wkid":102100}},"attributes":{"FACILITY_NAME":"AK STEEL CORP MANSFIELD WO RKS","STATE":"KY","COUNTY":"HENRY","LATITUDE":38.35844,"LONGITUDE":-85.16553,"INDICATOR_SCORE":50,"__OBJECTID":339,"INDUSTRY_SECTOR":null}},{"geometry":{"x":-9635344.8,"y":4410752.24,"spatialReference":{"wkid":102100}},"attributes":{"FACILITY_NAME":"ADVANCED CENTRIFUGALS LTD","STATE":"KY","COUNTY":"SIMPSON","LATITUDE":36.796305,"LONGITUDE":-86.555775,"INDICATOR_SCORE":50,"__OBJECTID":340,"INDUSTRY_SECTOR":null}},{"geometry":{"x":-9787495.72,"y":4454073.6,"spatialReference":{"wkid":102100}},"attributes":{"FACILITY_NAME":"CHAMPLAIN SPECIALTY METALS INC","STATE":"KY","COUNTY":"CALDWELL","LATITUDE":37.1073,"LONGITUDE":-87.92257,"INDICATOR_SCORE":50,"__OBJECTID":341,"INDUSTRY_SECTOR":null}},{"geometry":{"x":-9565092.74,"y":4443374.29,"spatialReference":{"wkid":102100}},"attributes":{"FACILITY_NAME":"PCC STRUCTURALS INC SMALL STRUCTURALS BUSINESS OPERATION","STATE":"KY","COUNTY":"BARREN","LATITUDE":37.03061,"LONGITUDE":-85.92469,"INDICATOR_SCORE":50,"__OBJECTID":342,"INDUSTRY_SECTOR":null}},{"geometry":{"x":-9538321.51,"y":4600389.79,"spatialReference":{"wkid":102100}},"attributes":{"FACILITY_NAME":"TITANIUM METALS CORP","STATE":"KY","COUNTY":"JEFFERSON","LATITUDE":38.14825,"LONGITUDE":-85.6842,"INDICATOR_SCORE":50,"__OBJECTID":343,"INDUSTRY_SECTOR":null}},{"geometry":{"x":-9490746.9,"y":4611204.44,"spatialReference":{"wkid":102100}},"attributes":{"FACILITY_NAME":"WOOT INC","STATE":"KY","COUNTY":"SHELBY","LATITUDE":38.22461,"LONGITUDE":-85.25683,"INDICATOR_SCORE":25,"__OBJECTID":344,"INDUSTRY_SECTOR":null}},{"geometry":{"x":-9441315.48,"y":4526374.67,"spatialReference":{"wkid":102100}},"attributes":{"FACILITY_NAME":"WESTERN ROTO ENGRAVERS INC","STATE":"KY","COUNTY":"BOYLE","LATITUDE":37.6235,"LONGITUDE":-84.81278,"INDICATOR_SCORE":25,"__OBJECTID":345,"INDUSTRY_SECTOR":null}},{"geometry":{"x":-9371712.53,"y":4581382.4,"spatialReference":{"wkid":102100}},"attributes":{"FACILITY_NAME":"LSC COMMUNICATIONS / MAPLE GROVE","STATE":"KY","COUNTY":"CLARK","LATITUDE":38.013849,"LONGITUDE":-84.187526,"INDICATOR_SCORE":25,"__OBJECTID":346,"INDUSTRY_SECTOR":null}},{"geometry":{"x":-9636817.56,"y":4403655.63,"spatialReference":{"wkid":102100}},"attributes":{"FACILITY_NAME":"LSC COMMUNICATIONS / SPARTANBURG","STATE":"KY","COUNTY":"SIMPSON","LATITUDE":36.745239,"LONGITUDE":-86.569005,"INDICATOR_SCORE":25,"__OBJECTID":347,"INDUSTRY_SECTOR":null}},{"geometry":{"x":-9420275.99,"y":4717672.34,"spatialReference":{"wkid":102100}},"attributes":{"FACILITY_NAME":"QUAD/GRAPHICS INC","STATE":"KY","COUNTY":"BOONE","LATITUDE":38.972075,"LONGITUDE":-84.623779,"INDICATOR_SCORE":25,"__OBJECTID":348,"INDUSTRY_SECTOR":null}},{"geometry":{"x":-9567954.76,"y":4440594.15,"spatialReference":{"wkid":102100}},"attributes":{"FACILITY_NAME":"AMAZONCOM SERVICES LLC - ONT3","STATE":"KY","COUNTY":"BARREN","LATITUDE":37.01067,"LONGITUDE":-85.9504,"INDICATOR_SCORE":25,"__OBJECTID":349,"INDUSTRY_SECTOR":null}},{"geometry":{"x":-9738263.56,"y":4424446.43,"spatialReference":{"wkid":102100}},"attributes":{"FACILITY_NAME":"ITG BRANDS","STATE":"KY","COUNTY":"CHRISTIAN","LATITUDE":36.89475,"LONGITUDE":-87.48031,"INDICATOR_SCORE":25,"__OBJECTID":350,"INDUSTRY_SECTOR":null}},{"geometry":{"x":-9736770.1,"y":4401806.59,"spatialReference":{"wkid":102100}},"attributes":{"FACILITY_NAME":"SANTA FE NATURAL TOBACCO CO","STATE":"KY","COUNTY":"CHRISTIAN","LATITUDE":36.731928,"LONGITUDE":-87.466894,"INDICATOR_SCORE":25,"__OBJECTID":351,"INDUSTRY_SECTOR":null}},{"geometry":{"x":-9332465.06,"y":4671185.71,"spatialReference":{"wkid":102100}},"attributes":{"FACILITY_NAME":"STURDY CORP","STATE":"KY","COUNTY":"MASON","LATITUDE":38.64667,"LONGITUDE":-83.83496,"INDICATOR_SCORE":25,"__OBJECTID":352,"INDUSTRY_SECTOR":null}},{"geometry":{"x":-9732897.96,"y":4414423.57,"spatialReference":{"wkid":102100}},"attributes":{"FACILITY_NAME":"MISSOURI METALS A DIV OF SAMUEL SON & CO (USA) INC","STATE":"KY","COUNTY":"CHRISTIAN","LATITUDE":36.82271,"LONGITUDE":-87.43211,"INDICATOR_SCORE":25,"__OBJECTID":353,"INDUSTRY_SECTOR":null}},{"geometry":{"x":-9734495.4,"y":4415476.34,"spatialReference":{"wkid":102100}},"attributes":{"FACILITY_NAME":"ALTEC INDUSTRIES INC","STATE":"KY","COUNTY":"CHRISTIAN","LATITUDE":36.83028,"LONGITUDE":-87.44646,"INDICATOR_SCORE":25,"__OBJECTID":354,"INDUSTRY_SECTOR":null}},{"geometry":{"x":-9381458.99,"y":4610631.99,"spatialReference":{"wkid":102100}},"attributes":{"FACILITY_NAME":"CURT MANUFACTURING LLC","STATE":"KY","COUNTY":"BOURBON","LATITUDE":38.22057,"LONGITUDE":-84.27508,"INDICATOR_SCORE":25,"__OBJECTID":355,"INDUSTRY_SECTOR":null}},{"geometry":{"x":-9357251.79,"y":4426437.66,"spatialReference":{"wkid":102100}},"attributes":{"FACILITY_NAME":"KATAYAMA AMERICAN CO INC","STATE":"KY","COUNTY":"KNOX","LATITUDE":36.909054,"LONGITUDE":-84.057623,"INDICATOR_SCORE":25,"__OBJECTID":356,"INDUSTRY_SECTOR":null}},{"geometry":{"x":-9489986.59,"y":4610944.85,"spatialReference":{"wkid":102100}},"attributes":{"FACILITY_NAME":"REGAL MARINE INDUSTRIES INC","STATE":"KY","COUNTY":"SHELBY","LATITUDE":38.222778,"LONGITUDE":-85.25,"INDICATOR_SCORE":25,"__OBJECTID":357,"INDUSTRY_SECTOR":null}},{"geometry":{"x":-9422342.19,"y":4724182.91,"spatialReference":{"wkid":102100}},"attributes":{"FACILITY_NAME":"BOEING SOUTH CAROLINA","STATE":"KY","COUNTY":"BOONE","LATITUDE":39.01753,"LONGITUDE":-84.64234,"INDICATOR_SCORE":25,"__OBJECTID":358,"INDUSTRY_SECTOR":null}},{"geometry":{"x":-9566093.5,"y":4435631.04,"spatialReference":{"wkid":102100}},"attributes":{"FACILITY_NAME":"BOSTON SHIP REPAIR LLC","STATE":"KY","COUNTY":"BARREN","LATITUDE":36.97506,"LONGITUDE":-85.93368,"INDICATOR_SCORE":25,"__OBJECTID":359,"INDUSTRY_SECTOR":null}},{"geometry":{"x":-9442595.66,"y":4602387.29,"spatialReference":{"wkid":102100}},"attributes":{"FACILITY_NAME":"MALIBU BOATS LLC","STATE":"KY","COUNTY":"FRANKLIN","LATITUDE":38.16236,"LONGITUDE":-84.82428,"INDICATOR_SCORE":25,"__OBJECTID":360,"INDUSTRY_SECTOR":null}},{"geometry":{"x":-9491316.19,"y":4516751.57,"spatialReference":{"wkid":102100}},"attributes":{"FACILITY_NAME":"SIKORSKY AIRCRAFT STRATFORD FACILITY","STATE":"KY","COUNTY":"MARION","LATITUDE":37.555,"LONGITUDE":-85.261944,"INDICATOR_SCORE":25,"__OBJECTID":361,"INDUSTRY_SECTOR":null}},{"geometry":{"x":-9502425.43,"y":4409406.23,"spatialReference":{"wkid":102100}},"attributes":{"FACILITY_NAME":"CIGARETTE RACING TEAM LLC","STATE":"KY","COUNTY":"CUMBERLAND","LATITUDE":36.786622,"LONGITUDE":-85.36174,"INDICATOR_SCORE":25,"__OBJECTID":362,"INDUSTRY_SECTOR":null}},{"geometry":{"x":-9405531.83,"y":4729228.94,"spatialReference":{"wkid":102100}},"attributes":{"FACILITY_NAME":"NASCO AIRCRAFT BRAKE INC","STATE":"KY","COUNTY":"CAMPBELL","LATITUDE":39.05274,"LONGITUDE":-84.49133,"INDICATOR_SCORE":25,"__OBJECTID":363,"INDUSTRY_SECTOR":null}},{"geometry":{"x":-9441165.2,"y":4602678.95,"spatialReference":{"wkid":102100}},"attributes":{"FACILITY_NAME":"HARLEY-DAVIDSON MOTOR CO OPERATIONS INC","STATE":"KY","COUNTY":"FRANKLIN","LATITUDE":38.16442,"LONGITUDE":-84.81143,"INDICATOR_SCORE":25,"__OBJECTID":364,"INDUSTRY_SECTOR":null}},{"geometry":{"x":-9410322.69,"y":4616270.1,"spatialReference":{"wkid":102100}},"attributes":{"FACILITY_NAME":"GALION-GODWIN TRUCK BODY CO LLC","STATE":"KY","COUNTY":"SCOTT","LATITUDE":38.26035,"LONGITUDE":-84.534367,"INDICATOR_SCORE":25,"__OBJECTID":365,"INDUSTRY_SECTOR":null}},{"geometry":{"x":-9625335.51,"y":4436535.41,"spatialReference":{"wkid":102100}},"attributes":{"FACILITY_NAME":"HONDA OF AMERICA MANUFACTURING INC","STATE":"KY","COUNTY":"WARREN","LATITUDE":36.98155,"LONGITUDE":-86.46586,"INDICATOR_SCORE":25,"__OBJECTID":366,"INDUSTRY_SECTOR":null}},{"geometry":{"x":-9665482.88,"y":4491545.87,"spatialReference":{"wkid":102100}},"attributes":{"FACILITY_NAME":"TRINITY TRAILER MANUFACTURING INC","STATE":"KY","COUNTY":"OHIO","LATITUDE":37.37528,"LONGITUDE":-86.82651,"INDICATOR_SCORE":25,"__OBJECTID":367,"INDUSTRY_SECTOR":null}},{"geometry":{"x":-9403894.88,"y":4463055.2,"spatialReference":{"wkid":102100}},"attributes":{"FACILITY_NAME":"FOREST RIVER SUNSEEKER DIV","STATE":"KY","COUNTY":"PULASKI","LATITUDE":37.171618,"LONGITUDE":-84.476625,"INDICATOR_SCORE":25,"__OBJECTID":368,"INDUSTRY_SECTOR":null}},{"geometry":{"x":-9381114.12,"y":4536840.34,"spatialReference":{"wkid":102100}},"attributes":{"FACILITY_NAME":"SECTIONAL STAMPING INC","STATE":"KY","COUNTY":"MADISON","LATITUDE":37.697926,"LONGITUDE":-84.271982,"INDICATOR_SCORE":25,"__OBJECTID":369,"INDUSTRY_SECTOR":null}},{"geometry":{"x":-9542919.01,"y":4601302.84,"spatialReference":{"wkid":102100}},"attributes":{"FACILITY_NAME":"ARNPRIOR AEROSPACE PORTLAND INC","STATE":"KY","COUNTY":"JEFFERSON","LATITUDE":38.1547,"LONGITUDE":-85.7255,"INDICATOR_SCORE":25,"__OBJECTID":370,"INDUSTRY_SECTOR":null}},{"geometry":{"x":-9514643.86,"y":4555776.53,"spatialReference":{"wkid":102100}},"attributes":{"FACILITY_NAME":"TECT (WHITCRAFT)","STATE":"KY","COUNTY":"NELSON","LATITUDE":37.8324,"LONGITUDE":-85.4715,"INDICATOR_SCORE":25,"__OBJECTID":371,"INDUSTRY_SECTOR":null}},{"geometry":{"x":-9519197.94,"y":4617546.12,"spatialReference":{"wkid":102100}},"attributes":{"FACILITY_NAME":"EATON CORP VEHICLE GROUP","STATE":"KY","COUNTY":"JEFFERSON","LATITUDE":38.26935,"LONGITUDE":-85.51241,"INDICATOR_SCORE":25,"__OBJECTID":372,"INDUSTRY_SECTOR":null}},{"geometry":{"x":-9521400.95,"y":4620970.89,"spatialReference":{"wkid":102100}},"attributes":{"FACILITY_NAME":"CHARLESTON CORP","STATE":"KY","COUNTY":"JEFFERSON","LATITUDE":38.2935,"LONGITUDE":-85.5322,"INDICATOR_SCORE":25,"__OBJECTID":373,"INDUSTRY_SECTOR":null}},{"geometry":{"x":-9537715.93,"y":4604488.42,"spatialReference":{"wkid":102100}},"attributes":{"FACILITY_NAME":"TRIUMPH INSULATION SYSTEM","STATE":"KY","COUNTY":"JEFFERSON","LATITUDE":38.177199,"LONGITUDE":-85.67876,"INDICATOR_SCORE":25,"__OBJECTID":374,"INDUSTRY_SECTOR":null}},{"geometry":{"x":-9404678.57,"y":4463480.6,"spatialReference":{"wkid":102100}},"attributes":{"FACILITY_NAME":"GENERAL DYNAMICS (NASSCO)","STATE":"KY","COUNTY":"PULASKI","LATITUDE":37.174663,"LONGITUDE":-84.483665,"INDICATOR_SCORE":25,"__OBJECTID":375,"INDUSTRY_SECTOR":null}},{"geometry":{"x":-9514789.69,"y":4555865.33,"spatialReference":{"wkid":102100}},"attributes":{"FACILITY_NAME":"RADIUS AEROSPACE - PHOENIX INC","STATE":"KY","COUNTY":"NELSON","LATITUDE":37.83303,"LONGITUDE":-85.47281,"INDICATOR_SCORE":25,"__OBJECTID":376,"INDUSTRY_SECTOR":null}},{"geometry":{"x":-9431148.67,"y":4588646.14,"spatialReference":{"wkid":102100}},"attributes":{"FACILITY_NAME":"MCKECHNIE VEHICLE COMPONETS","STATE":"KY","COUNTY":"WOODFORD","LATITUDE":38.06524,"LONGITUDE":-84.72145,"INDICATOR_SCORE":25,"__OBJECTID":377,"INDUSTRY_SECTOR":null}},{"geometry":{"x":-9414899.37,"y":4559902.81,"spatialReference":{"wkid":102100}},"attributes":{"FACILITY_NAME":"DAIMLER TRUCKS NA LLC","STATE":"KY","COUNTY":"JESSAMINE","LATITUDE":37.86167,"LONGITUDE":-84.57548,"INDICATOR_SCORE":25,"__OBJECTID":378,"INDUSTRY_SECTOR":null}},{"geometry":{"x":-9425761.14,"y":4602591.88,"spatialReference":{"wkid":102100}},"attributes":{"FACILITY_NAME":"GE AVIATION EVENDALE PLANT","STATE":"KY","COUNTY":"WOODFORD","LATITUDE":38.163805,"LONGITUDE":-84.673053,"INDICATOR_SCORE":25,"__OBJECTID":379,"INDUSTRY_SECTOR":null}},{"geometry":{"x":-9702528.89,"y":4541360.81,"spatialReference":{"wkid":102100}},"attributes":{"FACILITY_NAME":"NORDAM REPAIR DIV","STATE":"KY","COUNTY":"DAVIESS","LATITUDE":37.73005,"LONGITUDE":-87.1593,"INDICATOR_SCORE":25,"__OBJECTID":380,"INDUSTRY_SECTOR":null}},{"geometry":{"x":-9537478.49,"y":4574539.43,"spatialReference":{"wkid":102100}},"attributes":{"FACILITY_NAME":"CARRERA CUSTOM PAINTING INC","STATE":"KY","COUNTY":"BULLITT","LATITUDE":37.965402,"LONGITUDE":-85.676627,"INDICATOR_SCORE":25,"__OBJECTID":381,"INDUSTRY_SECTOR":null}},{"geometry":{"x":-9565489.03,"y":4533151.28,"spatialReference":{"wkid":102100}},"attributes":{"FACILITY_NAME":"CORN ISLAND SHIPYARD INC","STATE":"KY","COUNTY":"HARDIN","LATITUDE":37.6717,"LONGITUDE":-85.92825,"INDICATOR_SCORE":25,"__OBJECTID":382,"INDUSTRY_SECTOR":null}},{"geometry":{"x":-9444345.6,"y":4548510.96,"spatialReference":{"wkid":102100}},"attributes":{"FACILITY_NAME":"H-D MOTOR CO-TOMAHAWK SOMO","STATE":"KY","COUNTY":"MERCER","LATITUDE":37.780833,"LONGITUDE":-84.84,"INDICATOR_SCORE":25,"__OBJECTID":383,"INDUSTRY_SECTOR":null}},{"geometry":{"x":-9615691.9,"y":4440376.68,"spatialReference":{"wkid":102100}},"attributes":{"FACILITY_NAME":"STARLITE TRAILERS MFG INC","STATE":"KY","COUNTY":"WARREN","LATITUDE":37.00911,"LONGITUDE":-86.37923,"INDICATOR_SCORE":25,"__OBJECTID":384,"INDUSTRY_SECTOR":null}},{"geometry":{"x":-9489683.8,"y":4521761.5,"spatialReference":{"wkid":102100}},"attributes":{"FACILITY_NAME":"OVERHEAD DOOR CO TODCO DIV","STATE":"KY","COUNTY":"MARION","LATITUDE":37.59067,"LONGITUDE":-85.24728,"INDICATOR_SCORE":25,"__OBJECTID":385,"INDUSTRY_SECTOR":null}},{"geometry":{"x":-9564754.33,"y":4533653.38,"spatialReference":{"wkid":102100}},"attributes":{"FACILITY_NAME":"BARNES AEROSPACE - LANSING DIV","STATE":"KY","COUNTY":"HARDIN","LATITUDE":37.67527,"LONGITUDE":-85.92165,"INDICATOR_SCORE":25,"__OBJECTID":386,"INDUSTRY_SECTOR":null}},{"geometry":{"x":-9745835.52,"y":4488985.5,"spatialReference":{"wkid":102100}},"attributes":{"FACILITY_NAME":"MEDINA BLANKING INC","STATE":"KY","COUNTY":"HOPKINS","LATITUDE":37.357,"LONGITUDE":-87.54833,"INDICATOR_SCORE":25,"__OBJECTID":387,"INDUSTRY_SECTOR":null}},{"geometry":{"x":-9565926.08,"y":4437623.95,"spatialReference":{"wkid":102100}},"attributes":{"FACILITY_NAME":"GM SPRING HILL MANUFACTURING","STATE":"KY","COUNTY":"BARREN","LATITUDE":36.989361,"LONGITUDE":-85.932176,"INDICATOR_SCORE":25,"__OBJECTID":388,"INDUSTRY_SECTOR":null}},{"geometry":{"x":-9733394.45,"y":4414744.82,"spatialReference":{"wkid":102100}},"attributes":{"FACILITY_NAME":"AVTECHTYEE","STATE":"KY","COUNTY":"CHRISTIAN","LATITUDE":36.82502,"LONGITUDE":-87.43657,"INDICATOR_SCORE":25,"__OBJECTID":389,"INDUSTRY_SECTOR":null}},{"geometry":{"x":-9768116.11,"y":4423012.82,"spatialReference":{"wkid":102100}},"attributes":{"FACILITY_NAME":"RTI REMMELE ENGINEERING PLANT 10","STATE":"KY","COUNTY":"TRIGG","LATITUDE":36.88445,"LONGITUDE":-87.74848,"INDICATOR_SCORE":25,"__OBJECTID":390,"INDUSTRY_SECTOR":null}},{"geometry":{"x":-9609605.62,"y":4443273.75,"spatialReference":{"wkid":102100}},"attributes":{"FACILITY_NAME":"DANA LIGHT AXLE PRODUCTS LLC","STATE":"KY","COUNTY":"WARREN","LATITUDE":37.029889,"LONGITUDE":-86.324556,"INDICATOR_SCORE":25,"__OBJECTID":391,"INDUSTRY_SECTOR":null}},{"geometry":{"x":-9418804.01,"y":4710616.21,"spatialReference":{"wkid":102100}},"attributes":{"FACILITY_NAME":"JAYCO INC","STATE":"KY","COUNTY":"BOONE","LATITUDE":38.922778,"LONGITUDE":-84.610556,"INDICATOR_SCORE":25,"__OBJECTID":392,"INDUSTRY_SECTOR":null}},{"geometry":{"x":-9734535.47,"y":4415587.6,"spatialReference":{"wkid":102100}},"attributes":{"FACILITY_NAME":"BOEING COMMERCIAL AIRPLANES - AUBURN","STATE":"KY","COUNTY":"CHRISTIAN","LATITUDE":36.83108,"LONGITUDE":-87.44682,"INDICATOR_SCORE":25,"__OBJECTID":393,"INDUSTRY_SECTOR":null}},{"geometry":{"x":-9417938.17,"y":4446814.63,"spatialReference":{"wkid":102100}},"attributes":{"FACILITY_NAME":"FLEX-N-GATE","STATE":"KY","COUNTY":"PULASKI","LATITUDE":37.055278,"LONGITUDE":-84.602778,"INDICATOR_SCORE":25,"__OBJECTID":394,"INDUSTRY_SECTOR":null}},{"geometry":{"x":-9515311.77,"y":4557019.74,"spatialReference":{"wkid":102100}},"attributes":{"FACILITY_NAME":"ICONIC MARINE GROUP LLC","STATE":"KY","COUNTY":"NELSON","LATITUDE":37.84122,"LONGITUDE":-85.4775,"INDICATOR_SCORE":25,"__OBJECTID":395,"INDUSTRY_SECTOR":null}},{"geometry":{"x":-9492788.5,"y":4517189.69,"spatialReference":{"wkid":102100}},"attributes":{"FACILITY_NAME":"CATALINA YACHTS MORGAN DIV","STATE":"KY","COUNTY":"MARION","LATITUDE":37.55812,"LONGITUDE":-85.27517,"INDICATOR_SCORE":25,"__OBJECTID":396,"INDUSTRY_SECTOR":null}},{"geometry":{"x":-9487745.73,"y":4652145.45,"spatialReference":{"wkid":102100}},"attributes":{"FACILITY_NAME":"MODINE MANUFACTURING CO","STATE":"KY","COUNTY":"HENRY","LATITUDE":38.51296,"LONGITUDE":-85.22987,"INDICATOR_SCORE":25,"__OBJECTID":397,"INDUSTRY_SECTOR":null}},{"geometry":{"x":-9637164.32,"y":4407079.38,"spatialReference":{"wkid":102100}},"attributes":{"FACILITY_NAME":"TOA WINCHESTER LLC","STATE":"KY","COUNTY":"SIMPSON","LATITUDE":36.76988,"LONGITUDE":-86.57212,"INDICATOR_SCORE":25,"__OBJECTID":398,"INDUSTRY_SECTOR":null}},{"geometry":{"x":-9385337.36,"y":4523486.81,"spatialReference":{"wkid":102100}},"attributes":{"FACILITY_NAME":"NISSAN NA INC","STATE":"KY","COUNTY":"MADISON","LATITUDE":37.60295,"LONGITUDE":-84.30992,"INDICATOR_SCORE":25,"__OBJECTID":399,"INDUSTRY_SECTOR":null}},{"geometry":{"x":-9747929.44,"y":4551982.99,"spatialReference":{"wkid":102100}},"attributes":{"FACILITY_NAME":"ZF ACTIVE SAFETY & ELECTRONICS LLC","STATE":"KY","COUNTY":"HENDERSON","LATITUDE":37.80548,"LONGITUDE":-87.56714,"INDICATOR_SCORE":25,"__OBJECTID":400,"INDUSTRY_SECTOR":null}},{"geometry":{"x":-9408266.95,"y":4593289.09,"spatialReference":{"wkid":102100}},"attributes":{"FACILITY_NAME":"TEXTRON AVIATION/WEST CAMPUS","STATE":"KY","COUNTY":"FAYETTE","LATITUDE":38.09807,"LONGITUDE":-84.5159,"INDICATOR_SCORE":25,"__OBJECTID":401,"INDUSTRY_SECTOR":null}},{"geometry":{"x":-9513939.2,"y":4555839.96,"spatialReference":{"wkid":102100}},"attributes":{"FACILITY_NAME":"TRI-CON INDUSTRIES STAMPING PLANT","STATE":"KY","COUNTY":"NELSON","LATITUDE":37.83285,"LONGITUDE":-85.46517,"INDICATOR_SCORE":25,"__OBJECTID":402,"INDUSTRY_SECTOR":null}},{"geometry":{"x":-9421854.61,"y":4727488.84,"spatialReference":{"wkid":102100}},"attributes":{"FACILITY_NAME":"UNISON INDUSTRIES LLC   PLANT S 3 & 4","STATE":"KY","COUNTY":"BOONE","LATITUDE":39.0406,"LONGITUDE":-84.63796,"INDICATOR_SCORE":25,"__OBJECTID":403,"INDUSTRY_SECTOR":null}},{"geometry":{"x":-9608904.75,"y":4444135.67,"spatialReference":{"wkid":102100}},"attributes":{"FACILITY_NAME":"FORD MOTOR CO - LIVONIA TRANSMISSION PLANT","STATE":"KY","COUNTY":"WARREN","LATITUDE":37.03607,"LONGITUDE":-86.31826,"INDICATOR_SCORE":25,"__OBJECTID":404,"INDUSTRY_SECTOR":null}},{"geometry":{"x":-9608899.18,"y":4444248.63,"spatialReference":{"wkid":102100}},"attributes":{"FACILITY_NAME":"RANGER BOATS ALUMINUM BOAT FACTORY","STATE":"KY","COUNTY":"WARREN","LATITUDE":37.03688,"LONGITUDE":-86.31821,"INDICATOR_SCORE":25,"__OBJECTID":405,"INDUSTRY_SECTOR":null}},{"geometry":{"x":-9728161.32,"y":4411076.84,"spatialReference":{"wkid":102100}},"attributes":{"FACILITY_NAME":"LOCKHEED MARTIN MISSILES & FIRE CONTROL","STATE":"KY","COUNTY":"CHRISTIAN","LATITUDE":36.79864,"LONGITUDE":-87.38956,"INDICATOR_SCORE":25,"__OBJECTID":406,"INDUSTRY_SECTOR":null}},{"geometry":{"x":-9557035.43,"y":4530456.98,"spatialReference":{"wkid":102100}},"attributes":{"FACILITY_NAME":"PRATT & WHITNEY","STATE":"KY","COUNTY":"HARDIN","LATITUDE":37.65254,"LONGITUDE":-85.85231,"INDICATOR_SCORE":25,"__OBJECTID":407,"INDUSTRY_SECTOR":null}},{"geometry":{"x":-9614058.84,"y":4440231.7,"spatialReference":{"wkid":102100}},"attributes":{"FACILITY_NAME":"SUNSTAR ENGINEERING AMERICAS INC  MOTORCYCLE DIV","STATE":"KY","COUNTY":"WARREN","LATITUDE":37.00807,"LONGITUDE":-86.36456,"INDICATOR_SCORE":25,"__OBJECTID":408,"INDUSTRY_SECTOR":null}},{"geometry":{"x":-9411241.41,"y":4607662.51,"spatialReference":{"wkid":102100}},"attributes":{"FACILITY_NAME":"L&E ENGINEERING","STATE":"KY","COUNTY":"SCOTT","LATITUDE":38.19961,"LONGITUDE":-84.54262,"INDICATOR_SCORE":25,"__OBJECTID":409,"INDUSTRY_SECTOR":null}},{"geometry":{"x":-9442508.83,"y":4527101.33,"spatialReference":{"wkid":102100}},"attributes":{"FACILITY_NAME":"PLASTIC OMNIUM AUTO EXTERIORS LLC","STATE":"KY","COUNTY":"BOYLE","LATITUDE":37.62867,"LONGITUDE":-84.8235,"INDICATOR_SCORE":25,"__OBJECTID":410,"INDUSTRY_SECTOR":null}},{"geometry":{"x":-9702159.31,"y":4542631.86,"spatialReference":{"wkid":102100}},"attributes":{"FACILITY_NAME":"MORGAN OLSON LLC","STATE":"KY","COUNTY":"DAVIESS","LATITUDE":37.73908,"LONGITUDE":-87.15598,"INDICATOR_SCORE":25,"__OBJECTID":411,"INDUSTRY_SECTOR":null}},{"geometry":{"x":-9564292.35,"y":4534826.57,"spatialReference":{"wkid":102100}},"attributes":{"FACILITY_NAME":"ANTOLIN NASHVILLE","STATE":"KY","COUNTY":"HARDIN","LATITUDE":37.683611,"LONGITUDE":-85.9175,"INDICATOR_SCORE":25,"__OBJECTID":412,"INDUSTRY_SECTOR":null}},{"geometry":{"x":-9560755.73,"y":4602998.94,"spatialReference":{"wkid":102100}},"attributes":{"FACILITY_NAME":"WABTEC US RAIL INC","STATE":"KY","COUNTY":"JEFFERSON","LATITUDE":38.16668,"LONGITUDE":-85.88573,"INDICATOR_SCORE":25,"__OBJECTID":413,"INDUSTRY_SECTOR":null}},{"geometry":{"x":-9488158.5,"y":4536477.51,"spatialReference":{"wkid":102100}},"attributes":{"FACILITY_NAME":"MURPHY PLYWOOD CO EUGENE OPERATIONS","STATE":"KY","COUNTY":"WASHINGTON","LATITUDE":37.695347,"LONGITUDE":-85.233578,"INDICATOR_SCORE":25,"__OBJECTID":414,"INDUSTRY_SECTOR":null}},{"geometry":{"x":-9415968.03,"y":4445978.01,"spatialReference":{"wkid":102100}},"attributes":{"FACILITY_NAME":"PARKSITE TREATING PLANT","STATE":"KY","COUNTY":"PULASKI","LATITUDE":37.04928,"LONGITUDE":-84.58508,"INDICATOR_SCORE":25,"__OBJECTID":415,"INDUSTRY_SECTOR":null}},{"geometry":{"x":-9318059.87,"y":4582997.36,"spatialReference":{"wkid":102100}},"attributes":{"FACILITY_NAME":"SPI BURLINGTON","STATE":"KY","COUNTY":"BATH","LATITUDE":38.025278,"LONGITUDE":-83.705556,"INDICATOR_SCORE":25,"__OBJECTID":416,"INDUSTRY_SECTOR":null}},{"geometry":{"x":-9900817.4,"y":4380878.79,"spatialReference":{"wkid":102100}},"attributes":{"FACILITY_NAME":"CAROLINA POLE LELAND","STATE":"KY","COUNTY":"FULTON","LATITUDE":36.581111,"LONGITUDE":-88.940556,"INDICATOR_SCORE":25,"__OBJECTID":417,"INDUSTRY_SECTOR":null}},{"geometry":{"x":-9617220.2,"y":4502091.18,"spatialReference":{"wkid":102100}},"attributes":{"FACILITY_NAME":"LANGDALE FOREST PRODUCTS CO","STATE":"KY","COUNTY":"GRAYSON","LATITUDE":37.450522,"LONGITUDE":-86.392959,"INDICATOR_SCORE":25,"__OBJECTID":418,"INDUSTRY_SECTOR":null}},{"geometry":{"x":-9701891.03,"y":4389679.55,"spatialReference":{"wkid":102100}},"attributes":{"FACILITY_NAME":"BOISE CASCADE WOOD PRODUCTS LLC KETTLE FALLS PLYWOOD","STATE":"KY","COUNTY":"TODD","LATITUDE":36.64457,"LONGITUDE":-87.15357,"INDICATOR_SCORE":25,"__OBJECTID":419,"INDUSTRY_SECTOR":null}}],"geometryType":"esriGeometryPoint"},"nextObjectId":420,"popupInfo":{"title":"","fieldInfos":[{"fieldName":"__OBJECTID","label":"__OBJECTID","isEditable":false,"tooltip":"","visible":false,"format":null,"stringFieldOption":"textbox"},{"fieldName":"FACILITY_NAME","label":"FACILITY NAME","isEditable":true,"tooltip":"","visible":true,"format":null,"stringFieldOption":"textbox"},{"fieldName":"STATE","label":"STATE","isEditable":true,"tooltip":"","visible":true,"format":null,"stringFieldOption":"textbox"},{"fieldName":"COUNTY","label":"COUNTY","isEditable":true,"tooltip":"","visible":true,"format":null,"stringFieldOption":"textbox"},{"fieldName":"LATITUDE","label":"LATITUDE","isEditable":true,"tooltip":"","visible":true,"format":{"places":2,"digitSeparator":true},"stringFieldOption":"textbox"},{"fieldName":"LONGITUDE","label":"LONGITUDE","isEditable":true,"tooltip":"","visible":true,"format":{"places":2,"digitSeparator":true},"stringFieldOption":"textbox"},{"fieldName":"INDUSTRY_SECTOR","label":"INDUSTRY SECTOR","isEditable":true,"tooltip":"","visible":true,"format":null,"stringFieldOption":"textbox"},{"fieldName":"INDICATOR_SCORE","label":"INDICATOR SCORE","isEditable":true,"tooltip":"","visible":true,"format":{"places":0,"digitSeparator":true},"stringFieldOption":"textbox"}],"description":null,"showAttachments":false,"mediaInfos":[]}}],"showLegend":true,"visibility":true,"opacity":1}